City_ID,City,Lat,Lng,Max Temp,Humidity,Cloudiness,Wind Speed,Country,Date
0,ust-nera,64.5667,143.2,-32.6,89,100,0.33,Ust-Nera,1707254186
1,east london,-33.0153,27.9116,23.96,87,100,6.87,East London,1707254187
2,west island,-12.1568,96.8225,26.99,83,40,3.6,West Island,1707254187
3,zharkent,44.1628,80.0,-7.06,74,64,2.04,Zharkent,1707254188
4,alice springs,-23.7,133.8833,21.23,76,88,6.69,Alice Springs,1707254188
5,adre,13.4667,22.2,19.15,20,27,7.7,Adré,1707254188
6,lihue,21.9789,-159.3672,25.58,71,100,6.69,Lihue,1707254188
7,olonkinbyen,70.9221,-8.7187,-1.65,84,44,9.36,Olonkinbyen,1707254189
8,blackmans bay,-43.0167,147.3167,14.07,78,97,2.61,Blackmans Bay,1707254189
9,santa cruz,-17.8,-63.1667,33.03,52,40,6.69,Santa Cruz de la Sierra,1707254189
10,port mathurin,-19.6833,63.4167,27.01,70,67,8.16,Port Mathurin,1707254189
11,edinburgh of the seven seas,-37.0676,-12.3116,17.1,68,39,3.7,Edinburgh of the Seven Seas,1707254189
12,puerto ayora,-0.7393,-90.3518,28.98,77,68,4.9,Puerto Ayora,1707254189
13,kailua-kona,19.6406,-155.9956,26.95,68,20,4.63,Kailua-Kona,1707254129
14,bilibino,68.0546,166.4372,-35.6,100,100,0.68,Bilibino,1707254190
15,yashkul',46.1711,45.3435,0.76,75,81,7.25,Yashkul',1707254190
16,oswego,43.4501,-76.1497,5.29,64,11,0.45,Oswego,1707254190
17,huntsville,34.7304,-86.5861,18.89,36,0,6.17,Huntsville,1707254017
18,luza,60.6308,47.2512,-27.09,100,86,1.92,Luza,1707254190
19,port-aux-francais,-49.35,70.2167,6.05,90,100,11.14,Port-aux-Français,1707254191
20,kibre mengist,5.8833,38.9833,15.25,47,5,0.99,Kibre Mengist,1707254191
21,zyryanovsk,49.7386,84.2719,-20.54,98,61,0.87,Zyryanovsk,1707254191
22,tazovsky,67.4667,78.7,-14.85,97,98,3.82,Tazovsky,1707254191
23,hamilton,39.1834,-84.5333,10.6,54,0,2.57,Hamilton,1707253433
24,xining,36.6167,101.7667,-8.96,95,100,0.38,Xining,1707254191
25,santo rosario,15.6447,120.8612,19.83,86,2,1.0,Santo Rosario,1707254192
26,san patricio,28.017,-97.5169,21.97,42,0,1.96,San Patricio,1707254192
27,bethel,41.3712,-73.414,5.2,52,17,1.79,Bethel,1707254192
28,shaowu,27.3409,117.4831,5.04,97,100,1.49,Shaowu,1707254192
29,waitangi,-43.9535,-176.5597,19.34,90,97,2.24,Waitangi,1707254193
30,ebon,4.582,168.6964,27.72,79,95,5.83,Ebon,1707254193
31,port lincoln,-34.7333,135.8667,16.08,78,5,3.38,Port Lincoln,1707254193
32,ancud,-41.8697,-73.8203,16.63,94,100,8.47,Ancud,1707254194
33,grytviken,-54.2811,-36.5092,9.82,57,2,1.92,Grytviken,1707254194
34,tiksi,71.6872,128.8694,-24.49,99,98,2.69,Tiksi,1707254194
35,iskateley,67.6803,53.1512,-27.77,99,97,1.34,Iskateley,1707254194
36,yellowknife,62.456,-114.3525,-17.47,83,100,5.66,Yellowknife,1707254194
37,nar'yan-mar,67.6713,53.087,-27.72,99,97,1.34,Naryan-Mar,1707254195
38,shush,32.1942,48.2436,13.06,57,13,2.4,Susa,1707254195
39,ilulissat,69.2167,-51.1,-10.99,44,75,9.77,Ilulissat,1707254195
40,avarua,-21.2078,-159.775,30.03,74,75,6.17,Avarua,1707254195
41,moyynkum,44.2914,72.9469,1.47,67,100,4.18,Moyynkum,1707254196
42,magadan,59.5667,150.8,-22.25,80,99,3.41,Magadan,1707254196
43,albany,42.6001,-73.9662,3.65,56,6,2.18,Albany,1707254061
44,adamstown,-25.066,-130.1015,24.98,80,31,1.7,Adamstown,1707254196
45,margaret river,-33.95,115.0667,16.5,65,0,5.29,Margaret River,1707254196
46,ayr,55.4627,-4.6339,2.5,80,20,0.51,Ayr,1707254197
47,anadyr,64.75,177.4833,-23.72,76,20,2.0,Anadyr,1707254197
48,pisco,-13.7,-76.2167,29.03,61,0,10.29,Pisco,1707254197
49,badger,64.8,-147.5333,-12.88,81,40,2.57,Badger,1707254137
50,kampene,-3.6,26.6667,20.33,99,99,0.65,Kampene,1707254198
51,forster,-32.1667,152.5167,19.6,100,100,4.83,Forster,1707254198
52,glazov,58.1394,52.6584,-5.9,95,100,3.77,Glazov,1707254198
53,isla mujeres,21.2311,-86.731,21.03,69,35,8.97,Isla Mujeres,1707254199
54,papatowai,-46.5619,169.4708,12.8,85,78,4.46,Papatowai,1707254199
55,kavaratti,10.5669,72.642,27.8,75,4,3.24,Kavaratti,1707254199
56,puerto natales,-51.7236,-72.4875,17.25,45,100,5.14,Puerto Natales,1707254199
57,whitehorse,60.7161,-135.0538,-16.1,85,100,2.06,Whitehorse,1707254200
58,tafresh,34.692,50.013,-0.76,77,8,5.31,Tafresh,1707254200
59,bredasdorp,-34.5322,20.0403,21.6,64,10,6.21,Bredasdorp,1707254200
60,san sebastian de la gomera,28.0916,-17.1133,21.2,40,0,0.0,San Sebastián de La Gomera,1707254200
61,wailua homesteads,22.0669,-159.378,25.24,71,100,6.69,Wailua Homesteads,1707254201
62,ocean shores,46.9737,-124.1563,10.53,80,20,2.06,Ocean Shores,1707254201
63,korla,41.7597,86.1469,-5.7,77,27,1.19,Korla,1707254201
64,brookings,44.3114,-96.7984,9.14,81,0,4.12,Brookings,1707254131
65,kodiak,57.79,-152.4072,-2.27,86,0,1.54,Saint Paul Harbor,1707254201
66,umuarama,-23.7664,-53.325,31.12,48,100,2.67,Umuarama,1707254202
67,crane,31.3974,-102.3501,17.56,34,100,9.1,Crane,1707254202
68,invercargill,-46.4,168.35,15.57,80,64,4.92,Invercargill,1707254202
69,hegang,47.4,130.3667,-22.97,97,6,1.75,Hegang,1707254202
70,sao tome,0.3365,6.7273,27.65,79,99,0.27,São Tomé,1707254202
71,dauphin,51.1494,-100.0502,1.08,86,100,1.54,Dauphin,1707254202
72,enewetak,11.3474,162.3373,26.51,81,59,7.5,Enewetak,1707254203
73,susuman,62.7833,148.1667,-33.34,99,99,1.34,Susuman,1707254203
74,hagere selam,6.4833,38.5167,12.0,50,81,2.42,Hāgere Selam,1707254176
75,sitka,57.0531,-135.33,2.94,87,75,2.57,Sitka,1707254203
76,dudinka,69.4058,86.1778,-19.62,87,100,3.58,Dudinka,1707254203
77,college,64.8569,-147.8028,-12.83,80,40,2.57,College,1707254203
78,nova sintra,14.8667,-24.7167,21.2,72,0,3.39,Nova Sintra,1707254204
79,hawaiian paradise park,19.5933,-154.9731,23.21,78,100,2.06,Hawaiian Paradise Park,1707254204
80,muriti,-1.9833,32.9167,23.69,68,5,1.58,Muriti,1707254204
81,georgetown,5.4112,100.3354,27.75,89,20,3.09,George Town,1707254204
82,port elizabeth,-33.918,25.5701,23.39,89,75,8.75,Port Elizabeth,1707254204
83,inarajan village,13.2736,144.7484,26.08,90,100,6.76,Inarajan Village,1707254205
84,yeed,4.55,43.0333,28.48,42,61,4.48,Yeed,1707254205
85,yuzhno-kurilsk,44.0306,145.8556,-8.68,81,79,2.36,Yuzhno-Kurilsk,1707254205
86,cerro azul,21.2,-97.7333,22.29,48,0,3.23,Cerro Azul,1707254205
87,albertina,-22.2008,-46.6158,24.26,65,100,1.8,Albertina,1707254205
88,aykhal,66.0,111.5,-28.98,100,100,2.52,Aykhal,1707254205
89,gobabis,-22.45,18.9667,23.68,56,46,5.48,Gobabis,1707254206
90,stanley,54.868,-1.6985,3.73,74,20,2.06,Stanley,1707254206
91,metlili chaamba,32.2667,3.6333,12.52,38,0,1.03,Metlili Chaamba,1707254206
92,bull savanna,17.8868,-77.5902,23.92,64,29,8.37,Bull Savanna,1707254206
93,tsengel,49.4783,100.8894,-21.67,92,98,1.95,Tsengel,1707254206
94,ushuaia,-54.8,-68.3,17.81,42,0,2.57,Ushuaia,1707254047
95,sungailiat,-1.85,106.1333,25.95,87,100,2.29,Sungailiat,1707253993
96,vorgashor,67.5833,63.95,-24.91,98,97,1.7,Vorgashor,1707254207
97,bobrov,51.0961,40.0333,-6.74,93,67,3.82,Bobrov,1707254207
98,iqaluit,63.7506,-68.5145,-15.15,66,75,7.72,Iqaluit,1707254207
99,sangmelima,2.9333,11.9833,22.46,32,58,0.8,Sangmélima,1707254208
100,bathsheba,13.2167,-59.5167,28.34,83,40,8.75,Bathsheba,1707254208
101,isangel,-19.55,169.2667,28.06,94,75,1.03,Isangel,1707254208
102,petropavlovsk-kamchatsky,53.0452,158.6483,-10.67,84,75,3.0,Petropavlovsk-Kamchatskiy,1707254208
103,valparaiso,-33.0393,-71.6273,25.13,60,0,4.63,Valparaíso,1707254209
104,thompson,55.7435,-97.8558,-17.91,71,75,4.63,Thompson,1707254209
105,roma,43.2128,-75.4557,5.28,46,0,4.12,Rome,1707254189
106,ola,59.5833,151.2833,-23.11,85,98,4.09,Ola,1707254209
107,baidoa,3.1138,43.6498,25.46,67,62,6.43,Baidoa,1707254210
108,taoudenni,22.6783,-3.9836,20.49,12,1,5.33,Taoudenni,1707254210
109,chonchi,-42.6128,-73.8092,18.95,86,100,4.73,Chonchi,1707254210
110,mazatlan,23.2167,-106.4167,27.17,61,20,2.06,Mazatlán,1707254210
111,san jose del guaviare,2.5729,-72.6459,29.07,70,87,1.96,San José del Guaviare,1707254131
112,hoemul-li,41.4339,129.67,-5.65,69,9,1.87,Hoemul-li,1707254211
113,champerico,14.3,-91.9167,33.3,64,6,6.34,Champerico,1707254211
114,bengkulu,-3.8004,102.2655,24.07,88,100,2.04,Bengkulu,1707254211
115,ares,-6.1944,-35.1603,29.05,76,76,4.88,Arês,1707254212
116,oktyabr'skiy,54.4815,53.471,-1.73,88,100,7.15,Oktyabr'skiy,1707254212
117,praia da vitoria,38.7333,-27.0667,18.14,94,75,8.41,Praia da Vitória,1707254212
118,shohimardon,39.9839,71.8028,-3.57,50,100,5.88,Shohimardon,1707254212
119,buulobarde,3.8538,45.5674,25.89,76,96,7.8,Buulobarde,1707254213
120,tvoroyri,61.5556,-6.8111,1.14,57,100,9.63,Tvøroyri,1707254213
121,qaqortoq,60.7167,-46.0333,-16.41,63,0,3.91,Qaqortoq,1707254213
122,santa cruz das palmeiras,-21.8269,-47.2486,27.88,47,100,0.61,Santa Cruz das Palmeiras,1707254214
123,vilyuchinsk,52.9306,158.4028,-9.85,88,100,2.53,Vilyuchinsk,1707254215
124,hasaki,35.7333,140.8333,0.22,55,99,6.99,Hasaki,1707254215
125,phek,25.6667,94.5,4.1,98,63,0.56,Phek,1707254215
126,la passe,45.5549,-0.8967,10.55,92,98,4.54,La Passe,1707254215
127,manokwari,-0.8667,134.0833,25.19,84,100,2.39,Manokwari,1707254216
128,queenstown,-31.8976,26.8753,19.55,73,80,0.56,Queenstown,1707254216
129,tura,25.5198,90.2201,13.35,92,0,0.67,Tura,1707254216
130,dzuunharaa,48.8523,106.4579,-21.34,98,75,1.42,Dzüünharaa,1707254217
131,luanda,-8.8368,13.2343,27.0,89,75,2.57,Luanda,1707254217
132,garbahaarrey,3.3289,42.2209,29.75,45,99,5.82,Garbahaarrey,1707254217
133,minas de marcona,-15.2119,-75.1103,21.84,79,87,4.78,Minas de Marcona,1707254217
134,isafjordur,66.0755,-23.124,-3.02,88,100,9.79,Isafjordur,1707254218
135,chinde,26.8418,88.0763,6.78,72,0,1.87,Chinde,1707254218
136,ta`u,-14.2336,-169.5144,27.65,88,100,8.26,Ta`ū,1707254218
137,rawah,34.4816,41.9093,12.76,55,32,2.59,Rāwah,1707254218
138,kapa'a,22.0752,-159.319,25.99,71,100,6.69,Kapaa,1707254218
139,terrace,54.5163,-128.6035,0.68,74,100,1.03,Terrace,1707254218
140,tolanaro,-25.0319,46.9987,22.76,96,100,3.87,Tôlanaro,1707254219
141,korsholm,63.1142,21.6822,-14.31,92,0,1.03,Korsholm,1707254219
142,kolonia,50.9333,6.95,12.36,70,40,9.26,Cologne,1707254219
143,faya-largeau,17.9257,19.1043,18.31,22,99,8.76,Faya-Largeau,1707254219
144,pacocha,-17.5833,-71.3333,27.08,74,0,3.09,Pacocha,1707254219
145,kostopil',50.8784,26.4519,6.33,78,100,9.37,Kostopil’,1707254219
146,cooma,-36.2333,149.1333,7.69,70,54,1.48,Cooma,1707254220
147,happy valley-goose bay,53.3168,-60.3315,-12.83,66,20,1.54,Happy Valley-Goose Bay,1707254220
148,tual,-5.6667,132.75,28.25,77,100,8.89,Tual,1707254220
149,geraldton,-28.7667,114.6,25.23,22,0,8.23,Geraldton,1707254220
150,la'ie,21.6477,-157.9253,26.98,69,14,4.02,Lā‘ie,1707254220
151,nahiyat ash shinafiyah,31.5874,44.6602,15.58,50,76,2.21,Nāḩiyat ash Shināfīyah,1707254221
152,laojunmiao,39.8333,97.7333,-8.36,69,100,0.93,Laojunmiao,1707254221
153,nafada,11.0956,11.3327,24.16,21,93,6.4,Nafada,1707254222
154,illizi,26.4833,8.4667,12.89,25,38,5.22,Illizi,1707254222
155,tulun,54.5611,100.5792,-21.85,100,71,1.59,Tulun,1707254222
156,klyuchi,52.2667,79.1667,-9.2,83,79,4.99,Klyuchi,1707254223
157,udachny,66.4167,112.4,-29.2,82,95,1.89,Udachny,1707254223
158,sidi ifni,29.3797,-10.173,17.04,54,91,2.17,Sidi Ifni,1707254223
159,touros,-5.1989,-35.4608,27.65,77,100,5.85,Touros,1707254223
160,sandwip,22.4678,91.4561,21.02,86,0,0.61,Sandwīp,1707254224
161,erdenet,49.0333,104.0833,-22.39,94,54,1.71,Erdenet,1707254224
162,vadso,70.0744,29.7487,-8.91,92,75,6.69,Vadsø,1707254224
163,lazaro cardenas,17.9583,-102.2,28.57,60,7,3.8,Lázaro Cárdenas,1707254224
164,lebu,-37.6167,-73.65,19.76,82,61,2.35,Lebu,1707254205
165,acarau,-2.8856,-40.12,28.14,77,90,7.86,Acaraú,1707254225
166,kuanda,56.3161,116.0806,-22.6,99,99,0.57,Kuanda,1707254225
167,constantia,44.1833,28.65,9.38,57,34,5.37,Constanța,1707254225
168,klaksvik,62.2266,-6.589,-1.49,59,94,9.23,Klaksvík,1707254225
169,dryden,49.7833,-92.7503,1.16,93,100,2.06,Dryden,1707254226
170,kampong dungun,3.2167,101.3167,27.1,93,69,1.31,Kampong Dungun,1707254226
171,rawai,7.7797,98.3253,25.06,78,45,4.15,Rawai,1707254226
172,mata-utu,-13.2816,-176.1745,28.63,80,100,8.37,Mata-Utu,1707254226
173,nishinoomote,30.7333,131.0,13.88,65,100,5.28,Nishinoomote,1707254227
174,hennenman,-27.9765,27.0242,21.54,16,0,2.36,Hennenman,1707254227
175,sinabang,2.4803,96.3801,26.58,81,71,0.5,Sinabang,1707254227
176,wuyang,31.9925,116.2472,-2.87,92,100,1.72,Wuyang,1707254227
177,mitu,1.1983,-70.1733,25.89,90,95,1.06,Mitú,1707254173
178,cortez,37.3489,-108.5859,9.42,36,100,7.72,Cortez,1707254228
179,tofol,5.3248,163.0078,27.84,76,99,7.08,Tofol,1707254228
180,punta arenas,-53.15,-70.9167,13.06,62,0,6.69,Punta Arenas,1707254010
181,pathein,16.7833,94.7333,22.13,66,0,4.13,Pathein,1707254228
182,fale old settlement,-9.3852,-171.2468,28.87,78,100,11.39,Fale old settlement,1707254228
183,bundaberg,-24.85,152.35,26.23,99,26,1.79,Bundaberg,1707254228
184,haiku-pauwela,20.9219,-156.3051,24.54,67,20,9.77,Haiku-Pauwela,1707254229
185,jamestown,42.097,-79.2353,6.12,51,0,2.57,Jamestown,1707254229
186,shenjiamen,29.9576,122.298,4.93,83,100,7.35,Shenjiamen,1707254229
187,labasa,-16.4167,179.3833,27.07,86,100,1.2,Labasa,1707254229
188,kirkland lake,48.1446,-80.0377,1.16,75,100,1.54,Kirkland Lake,1707254230
189,san juan,-31.5375,-68.5364,38.77,18,93,5.92,San Juan,1707254230
190,kapuskasing,49.4169,-82.4331,3.05,93,100,4.63,Kapuskasing,1707254230
191,cockburn town,21.4612,-71.1419,25.29,74,0,13.84,Cockburn Town,1707254230
192,las veredas,23.1388,-109.7075,27.86,49,0,7.72,Las Veredas,1707254231
193,kishtwar,33.3167,75.7667,-4.77,70,0,3.11,Kishtwār,1707254231
194,alto araguaia,-17.3147,-53.2153,25.58,75,84,0.28,Alto Araguaia,1707254231
195,lompoc,34.6391,-120.4579,14.41,59,100,5.14,Lompoc,1707254231
196,palmer,42.1584,-72.3287,4.73,45,20,4.12,Palmer,1707254137
197,muromtsevo,56.3724,75.2418,-7.15,91,96,4.04,Muromtsevo,1707254231
198,kamina,-8.7386,24.9906,17.05,97,99,1.05,Kamina,1707254232
199,santana,-0.0583,-51.1817,30.1,74,40,4.12,Santana,1707254232
200,benguela,-12.5763,13.4055,27.31,75,87,0.37,Benguela,1707254232
201,yung shue wan,22.2333,114.1167,18.22,91,100,0.45,Yung Shue Wan,1707254232
202,cannonvale,-20.2833,148.7,27.66,84,62,3.95,Cannonvale,1707254233
203,lishui,28.4604,119.9103,2.49,97,100,1.83,Lishui,1707254233
204,petrovsk,52.3064,45.3917,-7.43,94,91,6.83,Petrovsk,1707254233
205,del rio,29.3627,-100.8968,22.06,37,0,6.69,Del Rio,1707254233
206,colonia,50.9333,6.95,12.36,71,40,9.26,Cologne,1707254019
207,naro moru,-0.1676,37.0213,11.97,80,14,1.06,Naro Moru,1707254234
208,mukalla,14.5425,49.1242,23.12,81,18,1.38,Mukalla,1707254234
209,port alfred,-33.5906,26.891,20.66,95,97,0.89,Port Alfred,1707254234
210,hermanus,-34.4187,19.2345,19.89,79,47,6.87,Hermanus,1707254234
211,longyearbyen,78.2186,15.6401,-10.09,67,20,7.2,Longyearbyen,1707254234
212,laguna,38.421,-121.4238,14.6,75,0,4.63,Laguna,1707254235
213,gerena,37.5561,-6.1621,13.09,91,0,2.05,Gerena,1707254235
214,flying fish cove,-10.4217,105.6791,22.82,100,73,1.03,Flying Fish Cove,1707254235
215,guarapari,-20.6667,-40.4975,24.38,90,100,3.43,Guarapari,1707254236
216,bomdila,27.25,92.4,1.43,95,98,1.0,Bomdila,1707254236
217,rio preto da eva,-2.6994,-59.6997,31.47,62,77,1.46,Rio Preto da Eva,1707254236
218,viedma,-40.8135,-62.9967,31.8,43,94,2.12,Viedma,1707254237
219,huangnihe,43.5583,128.0239,-19.84,96,14,1.94,Huangnihe,1707254237
220,gadzhiyevo,69.2551,33.3362,-18.04,99,97,5.07,Gadzhiyevo,1707254237
221,nuuk,64.1835,-51.7216,-5.66,63,75,4.63,Nuuk,1707254237
222,semnan,35.5729,53.3971,4.26,50,0,1.06,Semnan,1707254238
223,ribeira grande,38.5167,-28.7,17.22,94,75,7.6,Ribeira Grande,1707254238
224,puerto deseado,-47.7503,-65.8938,24.41,28,100,13.0,Puerto Deseado,1707254238
225,lugovoye,42.9094,72.7178,-0.58,60,98,4.18,Lugovoye,1707254238
226,strezhevoy,60.7333,77.5889,-0.02,90,100,6.26,Strezhevoy,1707254238
227,san salvador de jujuy,-24.1946,-65.2971,29.74,75,100,2.46,San Salvador de Jujuy,1707254239
228,ambatofinandrahana,-20.55,46.8,17.04,96,95,0.38,Ambatofinandrahana,1707254239
229,as sulayyil,20.4607,45.5779,19.14,47,90,5.1,As Sulayyil,1707254240
230,dakhla,23.6848,-15.958,20.01,68,100,8.75,Dakhla,1707254240
231,aasiaat,68.7098,-52.8699,-16.87,77,100,6.21,Aasiaat,1707254240
232,coquimbo,-29.9533,-71.3436,20.6,74,14,4.09,Coquimbo,1707253997
233,crockett,31.3182,-95.4566,19.99,26,0,0.0,Crockett,1707254058
234,daru,-9.0763,143.2092,25.58,92,100,3.41,Daru,1707254241
235,garachico,28.7781,-17.7646,17.49,42,0,2.57,Garachiko,1707254241
236,altayskoye,51.9533,85.3325,-9.58,81,22,2.82,Altayskoye,1707254242
237,aljezur,37.3191,-8.8033,14.2,95,7,2.54,Aljezur,1707254242
238,cadale,2.7603,46.3222,26.6,85,75,7.74,Cadale,1707254242
239,guiglo,6.5456,-7.4966,25.42,22,0,1.14,Guiglo,1707254242
240,aldinga beach,-35.2793,138.4604,15.93,81,2,2.79,Aldinga Beach,1707254243
241,st. john's,47.5649,-52.7093,0.64,96,100,12.96,St. John's,1707254172
242,linhai,28.85,121.1167,3.29,86,100,1.57,Linhai,1707254243
243,tongchuanshi,35.0806,109.0897,-3.06,72,91,2.27,Tongchuanshi,1707254243
244,dieppe,49.75,1.1667,11.85,85,98,1.34,Arrondissement de Dieppe,1707254243
245,afaahiti,-17.75,-149.2833,28.93,84,99,7.94,Afaahiti,1707254243
246,coruripe,-10.1256,-36.1756,27.3,79,76,5.44,Coruripe,1707254244
247,sao vicente,-23.9631,-46.3919,29.59,57,0,4.02,São Vicente,1707254244
248,yambio,4.5721,28.3955,23.88,32,1,1.83,Yambio,1707254244
249,preobrazheniye,42.9019,133.9064,-9.2,62,0,2.97,Preobrazheniye,1707254244
250,hohhot,40.8106,111.6522,-20.84,84,0,1.0,Hohhot,1707254244
251,kirensk,57.7853,108.1119,-15.58,100,100,1.79,Kirensk,1707254245
252,lepsy,46.235,78.9456,-9.57,87,97,1.89,Lepsy,1707254245
253,lincoln,40.8,-96.667,12.85,68,0,6.17,Lincoln,1707254171
254,pudozh,61.8099,36.5345,-26.7,100,70,1.79,Pudozh,1707254245
255,saipan,15.1355,145.701,24.39,69,20,3.6,Saipan,1707254116
256,utrik,11.2278,169.8474,26.36,81,99,7.2,Utrik,1707254246
257,victoria de durango,24.0333,-104.6667,27.27,6,0,4.92,Durango,1707254223
258,shache,38.4167,77.2406,-3.62,81,8,1.46,Shache,1707254246
259,harstad,68.799,16.5293,-4.36,93,95,3.64,Harstad,1707254246
260,kaoma,-14.7833,24.8,19.44,91,66,1.43,Kaoma,1707254247
261,eenhana,-17.4667,16.3333,22.53,71,98,2.9,Eenhana,1707254247
262,marsala,37.7966,12.4352,12.74,87,0,2.06,Marsala,1707254247
263,bubaque,11.2833,-15.8333,26.55,76,0,7.32,Bubaque,1707254247
264,were ilu,10.6,39.4333,12.36,80,21,3.21,Were Īlu,1707254247
265,puerto leguizamo,-0.1934,-74.7819,31.15,55,20,1.54,Caucayá,1707254247
266,ad dabbah,18.05,30.95,15.41,23,94,5.9,Ad Dabbah,1707254248
267,alta,69.9689,23.2717,-14.41,85,75,1.54,Alta,1707254248
268,niimi,34.9833,133.4667,3.08,96,38,1.36,Niimi,1707254068
269,bayanhongor,46.7167,100.1167,-26.62,71,13,1.6,Bayanhongor,1707254248
270,hastings,50.8552,0.5729,12.21,40,100,15.01,Hastings,1707254248
271,kayangel,8.0823,134.7173,27.37,77,100,9.59,Kayangel,1707254249
272,kone,-21.0595,164.8658,26.23,86,100,2.16,Koné,1707254249
273,westport,41.1415,-73.3579,5.99,54,0,3.13,Westport,1707254249
274,vorkuta,67.5,64.0,-25.41,98,96,1.52,Vorkuta,1707254249
275,pogar,52.554,33.2591,-4.91,96,99,0.7,Pogar,1707254249
276,yemva,62.59,50.8594,-31.57,100,100,1.17,Yemva,1707254250
277,heroica matamoros,25.8833,-97.5,23.94,41,0,2.57,Heroica Matamoros,1707254250
278,collie,-33.3667,116.15,14.27,73,0,3.72,Collie,1707254250
279,castillos,-34.1667,-53.8333,23.97,63,0,6.78,Castillos,1707254250
280,orsa,54.5153,30.4053,-7.84,96,100,2.32,Orsha,1707254160
281,dunedin,-45.8742,170.5036,15.45,99,100,4.92,Dunedin,1707254251
282,kanazawa,36.5944,136.6256,3.0,84,100,1.09,Kanazawa,1707254251
283,nemuro,43.3236,145.575,-8.13,74,37,1.74,Nemuro,1707254251
284,pandan,14.0453,124.1694,24.91,84,91,3.83,Pandan,1707254251
285,kesap,40.9164,38.5144,9.9,70,83,3.57,Keşap,1707254251
286,yazihan,38.5947,38.18,3.15,70,0,2.57,Yazıhan,1707254252
287,bonthe,7.5264,-12.505,27.29,84,0,4.14,Bonthe,1707254252
288,cotacachi,0.3,-78.2667,19.75,78,93,1.8,Cotacachi,1707254252
289,sola,-13.8833,167.55,29.37,79,75,0.0,Sola,1707254252
290,callao,-12.0667,-77.15,28.16,65,0,7.72,Callao,1707254252
291,barclayville,4.6797,-8.2339,27.07,85,2,3.25,Barclayville,1707254253
292,neufchatel-en-bray,49.7332,1.4396,12.07,85,98,9.57,Neufchâtel-en-Bray,1707254253
293,olinda,-8.0089,-34.8553,28.85,74,40,3.6,Olinda,1707254253
294,san pedro pochutla,15.7333,-96.4667,29.84,49,13,3.38,San Pedro Pochutla,1707254253
295,machico,32.7,-16.7667,20.0,60,20,3.6,Machico,1707254253
296,vernon,50.2581,-119.2691,2.64,100,100,0.51,Vernon,1707254254
297,nova xavantina,-14.6667,-52.35,29.83,64,47,1.68,Nova Xavantina,1707254254
298,ambodifotatra,-16.9833,49.85,27.17,76,100,4.23,Ambodifotatra,1707254254
299,ulanhot,46.0833,122.0833,-16.29,78,2,2.35,Ulanhot,1707254254
300,mermoz boabab,14.7065,-17.4758,29.31,57,0,3.09,Mermoz Boabab,1707254255
301,uturoa,-16.7333,-151.4333,28.06,85,100,12.13,Uturoa,1707254255
302,malango,-2.9627,119.9001,20.02,96,100,1.21,Malango,1707254255
303,niafunke,15.9322,-3.9906,23.21,11,0,5.62,Niafunké,1707254255
304,barda,40.3744,47.1267,4.75,75,48,3.81,Bǝrdǝ,1707254255
305,hammerfest,70.6634,23.6821,-5.75,68,75,3.6,Hammerfest,1707254256
306,khandyga,62.6667,135.6,-41.33,99,98,0.99,Khandyga,1707254256
307,winnemucca,40.973,-117.7357,2.03,87,100,3.09,Winnemucca,1707254256
308,vilyuysk,63.7553,121.6247,-29.44,100,99,0.45,Vilyuysk,1707254256
309,ketchikan,55.3422,-131.6461,2.99,80,100,0.0,Ketchikan,1707254257
310,kingston,17.997,-76.7936,28.53,52,75,9.26,Kingston,1707254183
311,tralee,52.2704,-9.7026,5.86,88,100,2.44,Tralee,1707254257
312,la manga del mar menor,37.6413,-0.7165,15.02,65,0,2.57,La Manga del Mar Menor,1707254257
313,jinan,36.6683,116.9972,-2.03,79,2,1.14,Jinan,1707254257
314,puerto quijarro,-17.7833,-57.7667,29.64,63,100,2.19,Puerto Quijarro,1707254257
315,topolobampo,25.6,-109.05,25.95,27,75,6.69,Topolobampo,1707254258
316,constitucion,-35.3333,-72.4167,21.64,72,40,6.99,Constitución,1707254157
317,lubuklinggau,-3.3,102.8667,22.46,94,100,0.82,Lubuklinggau,1707254258
318,opuwo,-18.0607,13.84,22.22,80,100,4.25,Opuwo,1707254258
319,zavolzhsk,57.4823,42.1378,-26.61,100,69,1.66,Zavolzhsk,1707254258
320,tsiombe,-25.3,45.4833,22.54,95,67,2.33,Tsiombe,1707254259
321,morondava,-20.2833,44.2833,26.97,78,77,1.5,Morondava,1707254259
322,penzance,50.1186,-5.5371,11.54,94,100,14.99,Penzance,1707254162
323,bobo-dioulasso,11.1771,-4.2979,26.25,15,47,3.09,Bobo-Dioulasso,1707254259
324,belyy yar,53.6039,91.3903,-21.06,100,66,0.0,Belyy Yar,1707254259
325,rawlins,41.7911,-107.2387,8.94,43,0,7.72,Rawlins,1707254259
326,acapulco de juarez,16.8634,-99.8901,29.9,58,20,4.63,Acapulco de Juárez,1707254034
327,kerikeri,-35.2268,173.9474,20.51,86,8,0.45,Kerikeri,1707254260
328,fort-shevchenko,44.5086,50.263,2.47,69,26,11.07,Fort-Shevchenko,1707254260
329,greenwood,34.1668,-82.1165,14.9,36,0,4.12,Greenwood,1707254260
330,lawas,13.764,121.0566,22.16,92,36,3.69,Lawas,1707254260
331,saint-louis,16.3333,-15.0,28.57,8,0,4.54,Saint-Louis,1707254261
332,trujillo,-8.116,-79.03,25.98,78,20,5.14,Trujillo,1707253976
333,mugia,43.1041,-9.2179,13.84,91,100,8.78,Mugia,1707254261
334,bandarbeyla,9.4942,50.8122,24.93,75,0,6.86,Bandarbeyla,1707254261
335,hithadhoo,-0.6,73.0833,28.2,76,69,2.69,Hithadhoo,1707254261
336,mount gambier,-37.8333,140.7667,13.72,81,50,0.57,Mount Gambier,1707254165
337,hinthada,17.6333,95.4667,20.44,47,0,2.29,Hinthada,1707254043
338,chifeng,42.2683,118.9636,-9.65,66,1,1.22,Chifeng,1707254262
339,taltal,-25.4,-70.4833,23.97,69,22,2.79,Taltal,1707254262
340,inhambane,-23.865,35.3833,23.64,79,0,3.25,Inhambane,1707254262
341,oamaru,-45.0784,170.9801,14.65,88,100,7.23,Oamaru,1707254263
342,askino,56.0901,56.5783,0.5,96,100,5.19,Askino,1707254263
343,krasnoarmeysk,51.0239,45.6969,-5.61,89,76,8.35,Krasnoarmeysk,1707254263
344,darnah,32.767,22.6367,15.3,72,0,3.19,Darnah,1707254263
345,island harbour,50.724,-1.2758,12.31,91,100,6.26,Island Harbour,1707254263
346,haapsalu,58.9431,23.5414,-3.38,89,100,2.86,Haapsalu,1707254264
347,sittwe,20.15,92.9,21.03,68,0,4.61,Sittwe,1707254264
348,ati,13.2154,18.3353,21.42,19,38,5.34,Ati,1707254264
349,howrah,22.5892,88.3103,22.0,88,75,0.0,Howrah,1707254264
350,dampit,-8.2116,112.7493,21.44,96,100,1.19,Dampit,1707254265
351,nadym,65.5333,72.5167,-20.07,100,67,2.61,Nadym,1707254265
352,wenchang,30.904,118.4887,-0.25,97,100,2.09,Wenchang,1707254265
353,namibe,-15.1961,12.1522,25.56,76,100,2.31,Mossamedes,1707254265
354,koryazhma,61.3143,47.1691,-27.83,100,85,0.8,Koryazhma,1707254266
355,hadibu,12.65,54.0333,24.59,73,5,3.74,Hadibu,1707254266
356,panarukan,-7.7018,113.9184,24.82,90,100,2.78,Panarukan,1707254266
357,kangding,30.0513,101.9603,-2.9,91,65,1.57,Kangding,1707254266
358,kayyerkan,69.3786,87.7439,-21.11,86,100,3.07,Kayyerkan,1707254267
359,albacete,38.8333,-2.0,9.45,76,0,5.14,Albacete,1707254267
360,kronoby,63.7286,23.0339,-18.32,77,20,1.03,Kronoby,1707254268
361,sandnessjoen,66.0217,12.6316,-5.88,79,75,3.6,Sandnessjøen,1707254268
362,nuoro,40.3211,9.3297,9.05,51,100,2.12,Nuoro,1707254268
363,port-gentil,-0.7193,8.7815,28.1,79,86,3.99,Port-Gentil,1707254268
364,cururupu,-1.8283,-44.8683,26.76,86,70,2.31,Cururupu,1707254269
365,san antonio de pale,-1.4014,5.6325,28.26,77,50,1.09,San Antonio de Palé,1707254269
366,tabas,33.5959,56.9244,9.12,34,0,2.06,Tabas,1707254269
367,al ghayzah,16.2079,52.176,22.99,66,50,2.12,Al Ghayzah,1707254270
368,floro,61.5996,5.0328,-1.02,47,0,3.6,Florø,1707254270
369,homer,59.6425,-151.5483,2.8,89,90,1.91,Homer,1707254117
370,rio grande,-32.035,-52.0986,27.06,70,74,6.36,Rio Grande,1707253692
371,west bay,19.3667,-81.4167,26.04,59,40,7.2,West Bay,1707254153
372,talnakh,69.4865,88.3972,-22.76,87,100,3.33,Talnakh,1707254270
373,kenai,60.5544,-151.2583,-6.97,93,100,1.54,Kenai,1707254271
374,mindelo,16.8901,-24.9804,22.75,68,0,7.72,Mindelo,1707254271
375,mount pearl,47.5166,-52.7813,0.18,96,100,5.36,Mount Pearl,1707254271
376,urengoy,65.9667,78.3667,-16.82,100,98,1.73,Urengoy,1707254271
377,bowen,-20.0167,148.2333,25.46,82,90,2.86,Bowen,1707254271
378,tongouson,5.0214,120.1328,26.4,84,100,2.0,Tongouson,1707254272
379,tyukhtet,56.5389,89.3011,-9.34,91,100,1.72,Tyukhtet,1707254272
380,embu,-23.6489,-46.8522,25.97,85,98,4.02,Embu,1707254272
381,huarmey,-10.0681,-78.1522,27.44,68,20,4.83,Huarmey,1707254272
382,fort mcmurray,56.7268,-111.381,-11.23,72,100,4.63,Fort McMurray,1707254080
383,zaki biam,7.5167,9.6167,27.14,17,42,3.13,Zaki Biam,1707254272
384,senanga,-16.1167,23.2667,21.12,86,100,1.41,Senanga,1707254273
385,ibirama,-27.0569,-49.5178,28.15,78,100,3.15,Ibirama,1707254273
386,launceston,-41.45,147.1667,12.67,81,0,2.06,Launceston,1707254076
387,weinan,34.5036,109.5089,-0.44,76,96,0.27,Weinan,1707254273
388,arkhangel'sk,64.5401,40.5433,-24.93,77,20,0.0,Arkhangelsk,1707254273
389,port saint john's,-31.6229,29.5448,23.26,90,42,6.3,Port Saint John's,1707254274
390,eyl,7.9803,49.8164,24.48,79,1,6.66,Eyl,1707254274
391,rodolfo sanchez taboada,31.7167,-116.5667,15.61,70,82,4.02,Rodolfo Sánchez Taboada,1707254274
392,alofi,-19.0595,-169.9187,28.94,70,75,3.6,Alofi,1707254274
393,salekhard,66.53,66.6019,-24.49,100,100,0.87,Salekhard,1707254274
394,broome,42.2506,-75.833,5.34,58,0,4.63,Broome,1707254275
395,sao joao da barra,-21.6403,-41.0511,26.05,87,99,2.94,São João da Barra,1707254275
396,fort irwin,35.2627,-116.6848,8.9,81,100,3.6,Fort Irwin,1707253939
397,marianna,30.7744,-85.2269,19.02,32,0,4.63,Marianna,1707254275
398,i-n-salah,27.1935,2.4607,15.71,19,35,1.59,I-n-Salah,1707254275
399,flin flon,54.7682,-101.865,-13.09,78,100,2.06,Flin Flon,1707254275
400,notodden,59.5594,9.2585,-5.56,90,100,2.02,Notodden,1707254276
401,codrington,-38.2667,141.9667,13.23,82,40,1.59,Codrington,1707254276
402,manado,1.487,124.8455,24.43,94,20,1.03,Manado,1707254276
403,barra de santo antonio,-9.4047,-35.5072,28.6,79,38,4.99,Barra de Santo Antônio,1707254277
404,newman,37.3138,-121.0208,12.86,79,98,2.68,Newman,1707254277
405,qamdo,31.1667,97.2333,-7.78,45,100,3.33,Chamdo,1707254277
406,thurso,58.5927,-3.5259,1.59,65,97,4.06,Thurso,1707254238
407,damavand,35.7178,52.065,-5.35,69,1,3.34,Damāvand,1707254277
408,egilsstadir,65.2653,-14.3948,-5.05,93,100,2.57,Egilsstadir,1707254277
409,chilmari,25.5559,89.6715,16.39,84,4,2.72,Chilmāri,1707254278
410,whakatane,-37.9585,176.9854,21.05,90,19,1.34,Whakatane,1707254278
411,swakopmund,-22.6833,14.5333,20.47,88,86,4.12,Swakopmund,1707254278
412,weno,7.4515,151.8468,26.97,74,40,5.14,Weno,1707254278
413,tazacorte,28.629,-17.9293,18.97,48,0,2.57,Tazacorte,1707254279
414,chul'man,56.8479,124.9104,-13.99,97,100,1.48,Chul'man,1707254279
415,menaka,15.9182,2.4022,21.67,11,98,5.87,Ménaka,1707254279
416,kill devil hills,36.0307,-75.676,6.66,65,0,10.29,Kill Devil Hills,1707254279
417,novospasskoye,53.1468,47.7514,-10.7,87,56,8.2,Novospasskoye,1707254279
418,itoman,26.1247,127.6694,18.43,69,75,1.03,Itoman,1707254280
419,tabou,4.423,-7.3528,28.03,79,3,4.69,Tabou,1707254280
420,zhangatas,43.5667,69.75,8.34,50,97,12.84,Zhangatas,1707254280
421,zhicheng,30.2956,111.5047,-3.33,94,76,1.37,Zhicheng,1707254280
422,mejit,10.2753,170.8646,26.92,79,83,7.77,Mejit,1707254280
423,byron bay,-28.65,153.6167,23.17,88,5,4.15,Byron Bay,1707254280
424,villa gesell,-37.2639,-56.973,21.7,84,86,10.51,Villa Gesell,1707254281
425,goba,7.0167,39.9833,11.17,59,7,1.68,Goba,1707254281
426,sequim,48.0795,-123.1018,9.31,76,92,1.79,Sequim,1707254282
427,atafu village,-8.5421,-172.5159,28.93,78,100,11.59,Atafu Village,1707254282
428,pontian kechil,1.4866,103.3896,26.11,90,78,2.69,Pontian Kechil,1707254282
429,santa lucia,27.9117,-15.5407,18.2,32,0,3.6,Santa Lucía,1707254282
430,pocahontas,36.2615,-90.9712,14.47,51,0,2.24,Pocahontas,1707254084
431,santa marta,11.2408,-74.199,31.03,66,40,3.6,Santa Marta,1707253853
432,danjiangkou,32.5428,111.5086,-1.09,90,73,1.02,Danjiangkou,1707254283
433,sisteron,44.1876,5.9462,6.89,69,99,1.35,Sisteron,1707254283
434,mutuali,-14.8706,37.0044,21.64,94,98,0.86,Mutuáli,1707254284
435,tursunzoda,38.5144,68.2333,7.14,44,100,2.58,Tursunzoda,1707254284
436,naze,28.3667,129.4833,12.51,78,100,4.79,Naze,1707254218
437,cookeville,36.1628,-85.5016,14.45,49,0,4.12,Cookeville,1707254123
438,lata,40.1629,-8.3327,11.07,90,31,1.36,Lata,1707254285
439,aral,40.5156,81.2636,-2.27,56,12,0.94,Aral,1707254285
440,paita,-5.0892,-81.1144,27.37,72,39,6.43,Paita,1707254285
441,san fernando de apure,7.8878,-67.4724,32.42,53,98,2.8,San Fernando de Apure,1707254285
442,ixtapa,20.7,-105.2,26.57,65,20,6.69,Ixtapa,1707254286
443,arraial do cabo,-22.9661,-42.0278,27.98,78,75,3.09,Arraial do Cabo,1707254286
444,padang,-0.9492,100.3543,27.03,88,90,1.5,Padang,1707254286
445,cabo san lucas,22.8909,-109.9124,28.12,59,20,4.63,Cabo San Lucas,1707254080
446,vieux fort,13.7167,-60.95,28.64,82,40,7.72,Vieux Fort,1707254286
447,ogoja,6.6547,8.7976,29.94,16,95,4.19,Ogoja,1707254287
448,saint-philippe,-21.3585,55.7679,23.77,84,72,6.06,Saint-Philippe,1707254287
449,alaghsas,17.0187,8.0168,17.7,20,97,6.99,Alaghsas,1707254287
450,fortuna,40.5982,-124.1573,12.21,86,100,5.14,Fortuna,1707254287
451,greymouth,-42.4667,171.2,17.89,73,69,0.62,Greymouth,1707254287
452,puquio,-14.7,-74.1333,15.32,79,58,4.71,Puquio,1707254288
453,zaragoza,41.6561,-0.8773,13.9,64,0,4.12,Zaragoza,1707254288
454,colchani,-20.3,-66.9333,9.82,71,100,7.67,Colchani,1707254288
455,cotgrave,52.9086,-1.0375,6.22,88,100,2.3,Cotgrave,1707254288
456,urrao,6.3152,-76.1342,18.92,86,79,1.48,Urrao,1707254289
457,malvern,34.3623,-92.813,18.65,37,0,1.56,Malvern,1707254289
458,karratha,-20.7377,116.8463,26.78,69,46,1.02,Karratha,1707254289
459,pailin,12.849,102.6093,22.81,91,5,1.32,Pailin,1707254290
460,sarh,9.1429,18.3923,27.31,16,93,2.49,Sarh,1707254290
461,miranda de ebro,42.6865,-2.947,7.77,80,24,1.45,Miranda de Ebro,1707254290
462,zag,46.9441,99.165,-28.46,81,10,1.68,Zag,1707254291
463,nyurba,63.2842,118.3319,-29.29,99,100,1.1,Nyurba,1707254291
464,morehead city,34.7229,-76.726,10.02,65,0,12.86,Morehead City,1707254156
465,angaur state,6.906,134.13,26.57,85,100,9.68,Angaur State,1707254291
466,yarkovo,57.4028,67.0786,-2.83,89,100,4.33,Yarkovo,1707254292
467,gumdag,39.2061,54.5906,6.91,48,100,2.85,Gumdag,1707254292
468,shikhany,52.1167,47.2167,-6.16,85,60,7.87,Shikhany,1707254292
469,horsham,51.064,-0.3272,12.47,82,75,9.77,Horsham,1707254292
470,carnarvon,-24.8667,113.6333,29.53,33,6,8.02,Carnarvon,1707254293
471,monster,52.0258,4.175,11.1,93,75,13.89,Monster,1707254293
472,ji'an,27.1172,114.9793,1.09,99,100,2.36,Ji’an,1707254293
473,rudnyy,52.9594,63.1206,0.13,84,100,9.96,Rudnyy,1707254293
474,el granada,37.5027,-122.4694,15.66,63,20,3.6,El Granada,1707254293
475,nicoya,10.1483,-85.452,33.71,40,1,4.54,Nicoya,1707254294
476,puerto madero,14.7208,-92.4215,31.11,66,20,7.72,Puerto Madero,1707254294
477,springfield,37.2153,-93.2982,16.76,28,0,2.06,Springfield,1707254226
478,enterprise,36.0252,-115.2419,9.8,79,100,2.06,Enterprise,1707254294
479,sierra vista,31.5545,-110.3037,18.95,22,40,11.83,Sierra Vista,1707254295
480,utete,-7.986,38.758,24.35,98,18,1.0,Utete,1707254295
481,puerto aysen,-45.4,-72.7,14.14,99,100,2.37,Puerto Aisén,1707254295
482,fort bragg,35.139,-79.006,12.12,36,0,8.23,Fort Bragg,1707254295
483,sovetskiy,61.3614,63.5842,-8.95,97,100,2.24,Sovetskiy,1707254295
484,prince albert,53.2001,-105.7677,-8.03,93,100,6.17,Prince Albert,1707254296
485,aktobe,50.2797,57.2072,-2.95,86,100,18.0,Aktobe,1707254296
486,port augusta,-32.5,137.7667,17.19,50,0,3.9,Port Augusta,1707254296
487,gumushkhane,40.4603,39.4814,1.58,95,97,1.21,Gümüşhane,1707254296
488,mitchell,43.7094,-98.0298,9.3,81,0,4.63,Mitchell,1707254183
489,san rafael,-34.6177,-68.3301,38.34,21,1,7.01,San Rafael,1707254203
490,tarakan,3.3,117.6333,25.72,94,40,1.03,Tarakan,1707254297
491,wanning,18.8003,110.3967,23.01,85,84,2.87,Wanning,1707254297
492,lodeynoye pole,60.726,33.5531,-21.39,98,9,2.17,Lodeynoye Pole,1707254298
493,aberdeen,57.1437,-2.0981,1.27,88,75,3.6,Aberdeen,1707254302
494,khanpur,28.6453,70.6567,16.29,49,100,1.69,Khanpur,1707254302
495,soio,-6.1349,12.3689,25.97,85,99,2.91,Soyo,1707254303
496,prince rupert,54.3161,-130.3201,1.05,100,100,1.54,Prince Rupert,1707254303
497,verkhnevilyuysk,63.4453,120.3167,-32.49,100,98,1.04,Verkhnevilyuysk,1707254303
498,akureyri,65.6835,-18.0878,-6.04,93,75,1.03,Akureyri,1707254304
499,puerto maldonado,-12.6,-69.1833,26.22,89,100,2.06,Puerto Maldonado,1707254183
500,pratt,37.6439,-98.7376,15.34,67,0,6.69,Pratt,1707254304
501,pemba,-12.974,40.5178,27.39,100,75,4.63,Pemba,1707254304
502,novyye burasy,52.1324,46.0714,-4.63,91,60,7.68,Novyye Burasy,1707254305
503,elur,10.0667,76.2833,23.98,83,20,1.54,Elūr,1707254305
504,aginskoye,51.1,114.53,-17.94,91,40,2.79,Aginskoye,1707254305
505,portland,45.5234,-122.6762,11.16,86,75,1.54,Portland,1707253700
506,fuling,29.7022,107.3919,6.18,90,100,0.67,Fuling,1707254305
507,pokrovsk,48.282,37.1758,0.21,98,95,3.26,Krasnoarmiys'k,1707254306
508,shorapur,16.5167,76.75,24.9,41,0,3.49,Shorāpur,1707254306
509,likasi,-10.9814,26.7333,17.58,97,100,1.16,Likasi,1707254306
510,al qaryatayn,34.2296,37.2407,9.15,64,0,3.03,Al Qaryatayn,1707254306
511,marsh harbour,26.5412,-77.0636,21.5,65,66,12.97,Marsh Harbour,1707254306
512,luderitz,-26.6481,15.1594,19.46,81,43,5.24,Lüderitz,1707254306
513,wellington,-41.2866,174.7756,22.21,72,33,11.83,Wellington,1707254159
514,kasimov,54.9411,41.3953,-13.36,98,96,1.45,Kasimov,1707254307
515,onega,63.9061,38.1404,-26.55,99,68,1.72,Onega,1707254307
516,kirakira,-10.4544,161.9205,28.06,79,62,3.45,Kirakira,1707254307
517,asaita,11.5636,41.4394,27.67,56,4,2.13,Asaita,1707254307
518,taulaga,-11.0553,-171.0883,28.24,83,100,10.6,Taulaga,1707254051
519,paradip garh,20.3167,86.6167,22.94,90,0,3.01,Paradip,1707254308
520,nhamunda,-2.1861,-56.7131,33.03,50,41,1.71,Nhamundá,1707254308
521,palikir - national government center,6.9248,158.1611,27.47,78,75,5.14,Palikir,1707254308
522,anloga,5.7947,0.8973,27.21,68,9,4.78,Anloga,1707254308
523,cosala,24.4125,-106.6908,32.02,16,48,3.41,Cosalá,1707254309
524,carolina,18.3808,-65.9574,27.19,87,75,0.0,Carolina,1707254110
525,ndelele,4.0333,14.9333,25.04,29,100,1.01,Ndelele,1707254313
526,mount isa,-20.7333,139.5,26.87,65,100,4.12,Mount Isa,1707254314
527,pueblo,38.2545,-104.6091,18.42,41,0,3.09,Pueblo,1707254172
528,phan rang-thap cham,11.5667,108.9833,22.6,88,98,1.96,Phan Rang-Thap Cham,1707254314
529,ekibastuz,51.6667,75.3667,-5.42,76,96,4.02,Ekibastuz,1707254314
530,chulakkurgan,43.765,69.1814,7.6,51,100,13.16,Chulakkurgan,1707254315
531,yanam,16.7333,82.2167,20.38,95,0,1.04,Yanam,1707254315
532,usogorsk,63.4106,48.6872,-28.52,100,98,0.47,Usogorsk,1707254315
533,chesma,53.8111,60.6533,-0.76,97,100,8.23,Chesma,1707254315
534,changji,44.0167,87.3167,-15.56,85,75,1.0,Changji,1707254315
535,boda,4.3189,17.4695,25.53,32,38,0.95,Boda,1707254315
536,buraydah,26.326,43.975,10.25,31,0,2.86,Buraidah,1707254316
537,rongelap,11.1635,166.8941,26.54,80,99,6.45,Rongelap,1707254316
538,kyren,51.6828,102.1408,-12.25,73,7,1.79,Kyren,1707254316
539,novodvinsk,64.4165,40.8122,-25.12,99,99,1.06,Novodvinsk,1707254276
540,el triunfo,-1.9333,-79.9667,32.02,67,52,2.35,El Triunfo,1707254144
541,cozumel,20.5083,-86.9458,22.26,78,100,6.26,San Miguel de Cozumel,1707254317
542,ciutadella,40.0011,3.8414,11.45,78,100,2.37,Ciutadella,1707254317
543,montenegro,42.5,19.3,4.86,87,20,1.03,Montenegro,1707254317
544,kasongo-lunda,-6.4667,16.8167,21.58,96,55,0.58,Kasongo-Lunda,1707254317
545,waingapu,-9.6567,120.2641,25.34,83,79,2.44,Waingapu,1707254318
546,pampa del indio,-26.0647,-59.919,29.64,57,100,3.79,Pampa del Indio,1707254318
547,altai,46.3722,96.2583,-19.65,67,10,0.8,Altai,1707254318
548,shendi,16.6915,33.4341,19.56,15,100,6.87,Shendi,1707254318
549,dwarka,22.2394,68.9678,22.35,78,63,4.58,Dwārka,1707254319
550,kalmunai,7.4167,81.8167,25.5,70,84,3.05,Kalmunai,1707254319
551,puerto baquerizo moreno,-0.9,-89.6,27.55,78,75,4.63,Puerto Baquerizo Moreno,1707254319
552,yakymivka,46.6897,35.1536,6.4,82,100,4.02,Yakymivka,1707254319
553,ghanzi,-21.5667,21.7833,28.19,38,76,4.88,Ghanzi,1707254319
554,bujaru,-1.515,-48.0447,25.36,96,67,1.46,Bujaru,1707254319
555,namtsy,62.7161,129.6658,-41.06,100,100,0.92,Namtsy,1707254320
556,awjilah,29.1081,21.2869,14.43,56,0,2.17,Awjilah,1707254320
557,grande prairie,55.1667,-118.8027,-6.9,79,100,1.54,Grande Prairie,1707254320
558,bay roberts,47.5999,-53.2648,0.84,96,100,6.26,Bay Roberts,1707254320
559,kermit,31.8576,-103.0927,17.25,36,0,6.69,Kermit,1707254320
560,myitkyina,25.3833,97.4,13.34,99,40,1.14,Myitkyina,1707254321
561,walvis bay,-22.9575,14.5053,20.53,83,96,0.0,Walvis Bay,1707254321
562,nguekhokh,14.5128,-17.005,29.49,18,0,4.63,Nguékhokh,1707254321
563,cherepanovo,54.2222,83.381,-12.65,96,98,3.0,Cherepanovo,1707254321
564,eraan,9.0629,117.7016,24.44,89,18,1.64,Eraan,1707254322
565,el calafate,-50.3408,-72.2768,16.52,49,29,2.77,El Calafate,1707254322
566,norrtalje,59.758,18.705,-2.21,78,100,4.21,Norrtälje,1707254322
567,jolo,6.05,121.0167,23.99,89,98,1.16,Jolo,1707254322
568,osvaldo cruz,-21.7967,-50.8786,29.48,45,100,1.84,Osvaldo Cruz,1707254228
569,bure,10.7,37.0667,16.46,54,50,1.33,Burē,1707254323
