City_ID,City,Lat,Lng,Max Temp,Humidity,Cloudiness,Wind Speed,Country,Date
0,tralee,52.2704,-9.7026,284.23,83,100,5.9,Tralee,1707164210
1,grytviken,-54.2811,-36.5092,281.13,66,80,5.59,Grytviken,1707164211
2,qaqortoq,60.7167,-46.0333,252.74,69,0,2.53,Qaqortoq,1707164211
3,waitangi,-43.9535,-176.5597,292.49,89,98,2.24,Waitangi,1707164211
4,afaahiti,-17.75,-149.2833,301.08,93,100,9.57,Afaahiti,1707164591
5,brookings,44.3114,-96.7984,280.4,83,0,6.17,Brookings,1707164343
6,tiksi,71.6872,128.8694,239.78,98,51,1.22,Tiksi,1707164212
7,karabudakhkent,42.7087,47.5673,278.42,100,20,4.0,Karabudakhkent,1707164212
8,sinabang,2.4803,96.3801,300.1,81,100,1.29,Sinabang,1707164212
9,invercargill,-46.4,168.35,294.83,65,100,3.13,Invercargill,1707164212
10,melfort,52.8667,-104.6177,272.22,86,39,5.14,Melfort,1707164212
11,college,64.8569,-147.8028,252.84,74,20,1.54,College,1707164592
12,punta arenas,-53.15,-70.9167,287.21,44,20,14.4,Punta Arenas,1707164529
13,turbat,26.0023,63.044,291.79,52,72,0.7,Turbat,1707164592
14,adamstown,-25.066,-130.1015,296.98,84,100,8.13,Adamstown,1707164213
15,new romney,50.986,0.9412,284.38,91,100,9.77,New Romney,1707164213
16,papatowai,-46.5619,169.4708,291.72,62,100,4.68,Papatowai,1707164213
17,yellowknife,62.456,-114.3525,252.27,81,20,3.6,Yellowknife,1707164193
18,bamboo flat,11.7,92.7167,296.2,94,1,0.0,Bamboo Flat,1707164213
19,port saint john's,-31.6229,29.5448,296.81,92,0,4.14,Port Saint John's,1707164593
20,gulf shores,30.246,-87.7008,286.25,74,100,4.12,Gulf Shores,1707164593
21,howard springs,-12.497,131.047,301.1,90,84,2.78,Howard Springs,1707164593
22,san bartolo,19.1833,-100.05,296.27,10,0,1.73,San Bartolo,1707164214
23,san antonio de pale,-1.4014,5.6325,300.71,76,74,1.96,San Antonio de Palé,1707164214
24,lerwick,60.1545,-1.1494,277.15,68,99,8.52,Lerwick,1707164116
25,georgetown,5.4112,100.3354,301.11,81,20,1.03,George Town,1707164214
26,kodinsk,58.6881,99.1844,270.06,92,100,3.09,Kodinsk,1707164594
27,west island,-12.1568,96.8225,301.14,89,40,4.63,West Island,1707164594
28,colby,39.3958,-101.0524,284.82,68,40,4.92,Colby,1707164521
29,wailua homesteads,22.0669,-159.378,298.39,69,75,9.26,Wailua Homesteads,1707164594
30,midvagur,62.0511,-7.1939,273.61,86,100,10.8,Miðvágur,1707164215
31,polyarnyy,69.1989,33.4478,253.96,100,96,2.89,Polyarny,1707164215
32,saveh,35.0213,50.3566,280.48,52,100,5.18,Sāveh,1707164216
33,atafu village,-8.5421,-172.5159,301.81,80,100,11.15,Atafu Village,1707164216
34,edinburgh of the seven seas,-37.0676,-12.3116,288.96,63,2,1.97,Edinburgh of the Seven Seas,1707164216
35,port-aux-francais,-49.35,70.2167,279.0,86,99,12.94,Port-aux-Français,1707164216
36,ribeira grande,38.5167,-28.7,290.8,94,75,8.05,Ribeira Grande,1707164216
37,avarua,-21.2078,-159.775,302.18,84,75,6.69,Avarua,1707164217
38,zuera,41.8677,-0.7898,280.88,56,100,1.75,Zuera,1707164217
39,qamdo,31.1667,97.2333,266.96,40,100,3.6,Chamdo,1707164217
40,pokaran,26.9167,71.9167,289.47,28,61,4.33,Pokaran,1707164217
41,nahiyat al fuhud,30.9697,46.7228,288.84,34,77,3.65,Nāḩiyat al Fuhūd,1707164218
42,callao,-12.0667,-77.15,303.31,51,0,6.69,Callao,1707164218
43,badger,64.8,-147.5333,252.79,74,20,1.54,Badger,1707164218
44,plouzane,48.3833,-4.6167,284.25,85,100,5.14,Plouzané,1707164218
45,vikulovo,56.8167,70.6107,273.68,97,100,8.52,Vikulovo,1707164219
46,chibougamau,49.9168,-74.3659,268.94,58,0,2.06,Chibougamau,1707164219
47,novodvinsk,64.4165,40.8122,251.36,99,72,2.09,Novodvinsk,1707164219
48,kodiak,57.79,-152.4072,274.88,80,0,0.0,Saint Paul Harbor,1707164219
49,jamestown,42.097,-79.2353,274.0,85,100,4.12,Jamestown,1707164165
50,godda,24.8333,87.2167,288.43,97,36,0.37,Godda,1707164219
51,hawaiian paradise park,19.5933,-154.9731,293.17,94,100,4.12,Hawaiian Paradise Park,1707164027
52,cooma,-36.2333,149.1333,285.84,98,100,0.53,Cooma,1707164220
53,onguday,50.75,86.15,258.6,96,99,1.44,Onguday,1707164220
54,olonkinbyen,70.9221,-8.7187,271.04,85,90,6.66,Olonkinbyen,1707164220
55,shingu,33.7333,135.9833,277.66,84,56,3.84,Shingū,1707164220
56,belmonte,-15.8631,-38.8828,300.74,75,39,3.27,Belmonte,1707164221
57,port elizabeth,-33.918,25.5701,294.44,93,100,2.57,Port Elizabeth,1707164221
58,tete,-16.1564,33.5867,300.23,64,3,1.22,Tete,1707164221
59,khandyga,62.6667,135.6,229.78,100,62,1.01,Khandyga,1707164221
60,blackmans bay,-43.0167,147.3167,284.22,76,35,0.45,Blackmans Bay,1707164222
61,ushuaia,-54.8,-68.3,287.96,41,0,7.2,Ushuaia,1707164033
62,gembu,6.7,11.2667,292.53,24,54,2.34,Gembu,1707164222
63,severo-yeniseyskiy,60.3725,93.0408,261.8,93,68,3.13,Severo-Yeniseyskiy,1707164222
64,wakkanai,45.4094,141.6739,264.31,86,100,1.34,Wakkanai,1707164223
65,palmer,42.1584,-72.3287,278.93,25,0,10.8,Palmer,1707164223
66,ust-nera,64.5667,143.2,245.63,85,100,0.53,Ust-Nera,1707164224
67,tejen,37.3834,60.5054,281.92,44,0,2.15,Tejen,1707164224
68,bethel,41.3712,-73.414,280.48,46,0,5.14,Bethel,1707163942
69,iqaluit,63.7506,-68.5145,254.09,77,100,1.03,Iqaluit,1707164225
70,bredasdorp,-34.5322,20.0403,295.44,73,0,2.51,Bredasdorp,1707164226
71,basco,20.4487,121.9702,297.34,85,81,9.9,Basco,1707164226
72,ipis,9.9675,-84.0133,299.36,52,20,6.17,Ipís,1707164226
73,altamirano,16.8833,-92.15,293.48,37,1,3.24,Altamirano,1707164227
74,lienz,46.8289,12.769,279.92,64,64,2.34,Lienz,1707164227
75,albany,42.6001,-73.9662,276.99,41,2,1.34,Albany,1707164127
76,playas,-2.6333,-80.3833,298.93,85,100,0.59,Playas,1707164133
77,san luis de la loma,17.2706,-100.8939,302.29,58,0,4.25,San Luis de la Loma,1707164227
78,mahebourg,-20.4081,57.7,298.31,69,20,1.54,Mahébourg,1707164228
79,kailua-kona,19.6406,-155.9956,299.54,67,0,4.63,Kailua-Kona,1707163969
80,international falls,48.6011,-93.411,275.45,86,20,2.06,International Falls,1707164228
81,susuman,62.7833,148.1667,244.25,89,100,1.34,Susuman,1707164229
82,walvis bay,-22.9575,14.5053,293.68,83,6,0.0,Walvis Bay,1707164229
83,iskateley,67.6803,53.1512,254.27,97,100,1.79,Iskateley,1707164229
84,puerto ayora,-0.7393,-90.3518,302.13,99,73,2.24,Puerto Ayora,1707164229
85,vadso,70.0744,29.7487,268.24,80,75,1.54,Vadsø,1707164230
86,razole,16.4833,81.8333,294.78,91,0,0.94,Rāzole,1707164230
87,flying fish cove,-10.4217,105.6791,296.97,94,75,4.12,Flying Fish Cove,1707164230
88,uturoa,-16.7333,-151.4333,300.18,91,100,9.53,Uturoa,1707164231
89,zeya,53.75,127.2667,248.42,100,100,0.52,Zeya,1707164231
90,swakopmund,-22.6833,14.5333,293.62,85,21,2.62,Swakopmund,1707164231
91,whitehorse,60.7161,-135.0538,260.81,96,100,1.6,Whitehorse,1707163942
92,puerto natales,-51.7236,-72.4875,289.4,39,20,16.46,Puerto Natales,1707164232
93,westport,41.1415,-73.3579,281.08,37,0,4.63,Westport,1707164232
94,axim,4.8699,-2.2405,300.18,82,1,3.7,Esim,1707164189
95,san jose del cabo,23.0589,-109.6977,304.13,30,20,5.14,San José del Cabo,1707164168
96,newman,37.3138,-121.0208,289.42,85,100,2.68,Newman,1707164232
97,baffa,34.4378,73.2194,277.66,61,8,2.49,Baffa,1707164233
98,isiolo,0.3546,37.5822,295.11,63,33,2.66,Isiolo,1707164233
99,lompoc,34.6391,-120.4579,290.55,66,75,5.14,Lompoc,1707164233
100,athni,16.7333,75.0667,298.42,44,0,1.42,Athani,1707164233
101,murzuq,25.9155,13.9184,285.23,35,0,4.2,Murzuk,1707164234
102,jajpur,20.85,86.3333,294.34,86,0,2.13,Jājpur,1707164234
103,sylvan lake,52.3168,-114.0853,267.23,89,20,2.06,Sylvan Lake,1707164234
104,kavaratti,10.5669,72.642,301.09,73,46,3.54,Kavaratti,1707164234
105,hermanus,-34.4187,19.2345,293.04,85,1,2.72,Hermanus,1707164234
106,sinop,41.7711,34.8709,279.26,81,74,5.36,Sinop Province,1707164235
107,juegang,32.3174,121.1855,273.28,84,100,4.82,Juegang,1707164235
108,mangualde,40.6043,-7.7612,284.12,87,100,1.33,Mangualde,1707164235
109,gadzhiyevo,69.2551,33.3362,253.87,100,98,2.8,Gadzhiyevo,1707164235
110,agupit,13.4225,123.3247,296.02,95,91,1.49,Agupit,1707164235
111,kerbakhiar,40.1067,46.0383,271.63,81,100,4.35,Kǝlbǝcǝr,1707164236
112,udachny,66.4167,112.4,250.62,76,100,2.18,Udachny,1707164236
113,anadyr,64.75,177.4833,248.43,77,75,8.0,Anadyr,1707164236
114,bandundu,-3.3167,17.3667,294.58,95,100,1.79,Bandundu Province,1707164236
115,kegeyli shahar,42.7767,59.6078,279.2,63,100,4.48,Kegeyli Shahar,1707164236
116,tulun,54.5611,100.5792,253.04,100,80,1.05,Tulun,1707164237
117,kismayo,-0.3582,42.5454,300.06,85,74,5.7,Kismayo,1707164237
118,prado,-17.3411,-39.2208,300.86,74,27,3.59,Prado,1707164237
119,margaret river,-33.95,115.0667,285.26,90,90,3.92,Margaret River,1707164237
120,jayapura,-2.5333,140.7,297.81,93,95,1.98,Jayapura,1707164237
121,iron river,46.0927,-88.6423,279.57,70,95,1.12,Iron River,1707164238
122,tura,25.5198,90.2201,289.47,56,100,0.2,Tura,1707164238
123,beyneu,45.3167,55.2,278.19,66,99,5.65,Beyneu,1707164238
124,greymouth,-42.4667,171.2,288.73,85,100,1.45,Greymouth,1707164238
125,martapura,-3.4167,114.85,299.2,100,100,1.03,Martapura,1707164238
126,hadibu,12.65,54.0333,298.02,75,3,3.69,Hadibu,1707164134
127,nishinoomote,30.7333,131.0,287.72,68,7,10.71,Nishinoomote,1707164239
128,lebu,-37.6167,-73.65,293.17,73,100,3.55,Lebu,1707164239
129,medicine hat,50.0501,-110.6683,266.65,84,100,0.45,Medicine Hat,1707164240
130,ola,59.5833,151.2833,250.74,83,100,4.52,Ola,1707164240
131,thompson,55.7435,-97.8558,271.24,100,100,1.54,Thompson,1707164133
132,troitsk,54.0979,61.5773,270.28,89,66,5.75,Troitsk,1707164240
133,arraial do cabo,-22.9661,-42.0278,302.07,74,40,7.72,Arraial do Cabo,1707164241
134,parauapebas,-6.0675,-49.9022,298.14,94,100,0.0,Parauapebas,1707164241
135,geraldton,-28.7667,114.6,288.38,67,95,3.09,Geraldton,1707164241
136,talnakh,69.4865,88.3972,251.08,89,92,2.12,Talnakh,1707164241
137,kone,-21.0595,164.8658,298.35,98,100,2.31,Koné,1707164242
138,ratnagiri,16.9833,73.3,297.74,64,0,2.65,Ratnagiri,1707164242
139,taro,-8.3862,115.28,297.15,94,40,0.63,Taro,1707164242
140,utrik,11.2278,169.8474,299.58,82,20,8.9,Utrik,1707164242
141,kendari,-3.945,122.4989,297.4,92,100,0.7,Kendari,1707164243
142,embi,48.8264,58.1442,274.05,91,100,9.35,Emba,1707164243
143,kudat,6.8837,116.8477,299.11,94,100,1.03,Kudat,1707164243
144,bilibino,68.0546,166.4372,237.79,100,99,0.42,Bilibino,1707164244
145,dudinka,69.4058,86.1778,251.3,95,94,2.24,Dudinka,1707164244
146,nelson bay,-32.7167,152.15,297.59,92,100,1.79,Nelson Bay,1707164244
147,cockburn town,21.4612,-71.1419,298.73,81,0,7.77,Cockburn Town,1707164245
148,ugoofaaru,5.6667,73.0,300.86,77,4,6.57,Ugoofaaru,1707164245
149,lakatoro,-16.0999,167.4164,301.06,81,99,0.85,Lakatoro,1707164245
150,port mathurin,-19.6833,63.4167,299.16,68,39,7.36,Port Mathurin,1707164245
151,antsiranana,-12.2787,49.2917,297.64,94,42,2.2,Antsiranana,1707164245
152,tolanaro,-25.0319,46.9987,297.28,87,100,5.51,Tôlanaro,1707164245
153,vorgashor,67.5833,63.95,249.05,99,31,2.46,Vorgashor,1707164245
154,vernon,50.2581,-119.2691,275.24,79,100,0.89,Vernon,1707164246
155,kimbe,-5.5502,150.1429,297.55,91,64,0.9,Kimbe,1707164246
156,yung shue wan,22.2333,114.1167,293.01,87,100,0.45,Yung Shue Wan,1707164246
157,arkhangel'sk,64.5401,40.5433,251.55,76,0,1.0,Arkhangelsk,1707164216
158,stanley,54.868,-1.6985,283.92,79,75,8.75,Stanley,1707164132
159,carutapera,-1.195,-46.02,301.32,77,24,4.01,Carutapera,1707164247
160,cuajinicuilapa,16.4667,-98.4167,305.44,42,0,5.05,Cuajinicuilapa,1707164247
161,conduaga,8.862,117.4893,297.89,79,93,1.29,Conduaga,1707164247
162,figuig (centre),32.1089,-1.2286,283.5,33,100,1.48,Figuig (Centre),1707164248
163,cabanas,22.9758,-82.9219,294.72,65,11,12.78,Cabañas,1707164248
164,al jawf,29.5,38.75,283.79,39,0,1.65,Al Jawf,1707164248
165,port alfred,-33.5906,26.891,294.92,97,4,1.88,Port Alfred,1707164248
166,siocon,7.7061,122.1353,297.89,85,96,2.39,Siocon,1707164248
167,tokar,18.4254,37.729,295.28,64,99,4.66,Tokār,1707164240
168,palikir - national government center,6.9248,158.1611,299.6,74,100,7.36,Palikir,1707164249
169,klyuchi,52.2667,79.1667,264.98,87,71,4.6,Klyuchi,1707164249
170,nadym,65.5333,72.5167,248.59,99,82,4.38,Nadym,1707164249
171,mossel bay,-34.1831,22.146,296.11,88,34,3.9,Mossel Bay,1707164249
172,minas de marcona,-15.2119,-75.1103,297.5,63,19,4.93,Minas de Marcona,1707164249
173,itoman,26.1247,127.6694,290.16,67,100,7.2,Itoman,1707164069
174,new norfolk,-42.7826,147.0587,284.87,80,87,1.3,New Norfolk,1707164250
175,craig,40.5153,-107.5464,276.12,60,75,5.14,Craig,1707164250
176,island harbour,50.724,-1.2758,284.44,87,100,5.36,Island Harbour,1707164251
177,labrador city,52.9463,-66.9114,261.1,44,0,3.09,Labrador City,1707164251
178,longyearbyen,78.2186,15.6401,269.06,74,75,5.14,Longyearbyen,1707164251
179,barra do corda,-5.5,-45.25,301.9,71,97,1.77,Barra do Corda,1707164251
180,the hammocks,25.6715,-80.4445,292.59,90,79,4.57,The Hammocks,1707164251
181,urzhar,47.093,81.6294,263.3,70,69,2.39,Urzhar,1707164252
182,isafjordur,66.0755,-23.124,266.08,70,100,4.48,Isafjordur,1707164252
183,oyama,36.3,139.8,276.81,91,100,3.37,Oyama,1707164252
184,san patricio,28.017,-97.5169,292.2,52,77,8.07,San Patricio,1707164252
185,vinales,22.6164,-83.7078,295.09,55,10,11.59,Viñales,1707164252
186,enewetak,11.3474,162.3373,299.57,74,97,9.2,Enewetak,1707164252
187,daru,-9.0763,143.2092,299.02,90,100,2.92,Daru,1707164253
188,kupang,-10.1667,123.5833,298.81,89,100,1.71,Kupang,1707164253
189,mar del plata,-38.0023,-57.5575,296.22,76,0,10.73,Mar del Plata,1707164253
190,svobodnyy,51.4,128.1333,250.77,98,100,0.89,Svobodnyy,1707164253
191,faya-largeau,17.9257,19.1043,291.69,23,66,10.39,Faya-Largeau,1707164253
192,portland,45.5234,-122.6762,282.62,92,100,2.06,Portland,1707164195
193,inarajan village,13.2736,144.7484,300.23,78,100,8.69,Inarajan Village,1707164254
194,quepos,9.4236,-84.1652,303.33,60,34,4.19,Quepos,1707164254
195,salida,37.7058,-121.0849,288.64,85,100,5.33,Salida,1707164046
196,saint-philippe,-21.3585,55.7679,294.92,77,82,4.31,Saint-Philippe,1707164255
197,guayaramerin,-10.8368,-65.3614,302.93,60,97,2.49,Guayaramerín,1707164255
198,northam,51.0333,-4.2167,286.29,93,100,9.67,Northam,1707164255
199,monteagudo,-19.8167,-63.9833,304.49,32,88,3.65,Monteagudo,1707164255
200,akureyri,65.6835,-18.0878,266.11,79,75,5.66,Akureyri,1707164070
201,los llanos de aridane,28.6585,-17.9182,292.11,31,0,2.57,Los Llanos de Aridane,1707164255
202,lokoja,7.8024,6.743,302.13,16,35,0.69,Lokoja,1707164256
203,tyukhtet,56.5389,89.3011,264.25,93,93,2.98,Tyukhtet,1707164256
204,dumbea,-22.15,166.45,300.92,99,100,4.51,Dumbéa,1707164256
205,al musayyib,32.7833,44.2825,287.9,41,100,3.99,Al Musayyib,1707164256
206,loiza,18.4313,-65.8802,305.14,58,75,4.12,Loíza,1707164256
207,aasiaat,68.7098,-52.8699,242.95,88,16,3.43,Aasiaat,1707164256
208,ayabaca,-4.6398,-79.7149,282.81,89,94,2.02,Ayabaca,1707164257
209,colac,-38.3333,143.5833,283.61,85,0,1.62,Colac,1707164257
210,balkanabat,39.5108,54.3671,282.66,44,97,1.7,Balkanabat,1707164257
211,ulsteinvik,62.3432,5.8487,272.21,93,94,0.89,Ulsteinvik,1707164257
212,cuatro cienegas de carranza,26.9833,-102.0833,292.61,21,0,3.24,Cuatro Ciénegas de Carranza,1707164257
213,vicam,27.6333,-110.2833,302.57,14,37,2.52,Vicam,1707164258
214,mohr,54.3528,9.7167,281.56,90,75,14.92,Mohr,1707164258
215,hongch'on,37.6918,127.8857,271.05,80,100,1.19,Hongch’ŏn,1707164258
216,jabor,5.921,169.6434,300.77,79,100,7.87,Jabor,1707164258
217,altamont,42.2068,-121.7372,279.25,66,75,12.35,Altamont,1707164258
218,cannonvale,-20.2833,148.7,298.81,76,13,0.98,Cannonvale,1707164259
219,tazovsky,67.4667,78.7,248.13,100,53,3.72,Tazovsky,1707164259
220,colonia,50.9333,6.95,283.13,74,75,3.6,Cologne,1707164002
221,vilhena,-12.7406,-60.1458,299.8,69,100,0.67,Vilhena,1707164231
222,al bardiyah,31.7561,25.0865,287.66,83,0,4.77,Al Bardīyah,1707164259
223,rice lake,45.5061,-91.7382,284.97,59,0,2.06,Rice Lake,1707164263
224,san felice sul panaro,44.8332,11.1426,283.18,82,41,2.24,San Felice sul Panaro,1707164264
225,katsuura,35.1333,140.3,278.63,95,100,9.33,Katsuura,1707164264
226,sodankyla,67.4167,26.6,247.44,100,92,1.46,Sodankylä,1707164264
227,caluula,11.9661,50.7569,298.61,77,5,4.74,Alula,1707164265
228,nabire,-3.3667,135.4833,297.42,93,98,1.7,Nabire,1707164265
229,new plymouth,-39.0667,174.0833,289.44,72,3,1.53,New Plymouth,1707163966
230,carnarvon,-24.8667,113.6333,300.69,35,11,8.53,Carnarvon,1707164266
231,puerto baquerizo moreno,-0.9,-89.6,302.7,70,40,6.69,Puerto Baquerizo Moreno,1707164266
232,elmadag,39.9208,33.2308,280.01,80,100,3.4,Elmadağ,1707164266
233,chernyshevskiy,63.0128,112.4714,253.0,99,100,1.04,Chernyshevskiy,1707164266
234,jimenez,28.3333,-105.4,292.46,18,15,0.92,Jiménez,1707164267
235,ambalangoda,6.2355,80.0538,298.43,86,78,0.34,Ambalangoda,1707164267
236,kani keli,-12.9536,45.1033,300.74,77,48,3.46,Kani Keli,1707164268
237,aguada de pasajeros,22.385,-80.8508,300.73,34,3,9.92,Aguada de Pasajeros,1707164268
238,sabang,5.8933,95.3214,301.01,74,100,4.47,Sabang,1707164235
239,greenville,35.6127,-77.3663,286.56,39,0,4.12,Greenville,1707164269
240,kuqa,41.7278,82.9364,268.92,75,56,0.91,Kucha,1707164270
241,hasaki,35.7333,140.8333,276.09,72,100,10.05,Hasaki,1707164270
242,ilulissat,69.2167,-51.1,252.16,65,20,4.63,Ilulissat,1707164271
243,sanandaj,35.3144,46.9923,274.16,87,75,4.12,Sanandij,1707164271
244,karratha,-20.7377,116.8463,300.59,65,16,3.43,Karratha,1707164271
245,pisco,-13.7,-76.2167,303.18,58,0,7.2,Pisco,1707164220
246,twin falls,42.3505,-114.6445,283.34,54,20,7.72,Twin Falls,1707164272
247,mundemba,4.9479,8.8724,298.63,67,59,1.01,Mundemba,1707164272
248,minot,48.2325,-101.2963,277.27,87,100,2.57,Minot,1707163994
249,socorro,31.6546,-106.3033,290.65,25,0,2.57,Socorro,1707164272
250,orhangazi,40.4892,29.3089,287.89,73,92,3.08,Orhangazi,1707164273
251,khenchela,35.4358,7.1433,284.13,43,0,2.12,Khenchela,1707164273
252,port douglas,-16.4833,145.4667,299.28,83,92,1.51,Port Douglas,1707164273
253,khangah dogran,31.8317,73.6231,281.8,56,3,1.82,Khangah Dogran,1707164273
254,zhoushan,30.0108,122.2047,276.52,78,98,6.21,Zhoushan,1707164273
255,rio grande,-32.035,-52.0986,301.21,78,54,5.03,Rio Grande,1707164274
256,karasu,41.071,30.7854,285.73,72,100,5.79,Karasu Mahallesi,1707164274
257,vuktyl,63.8567,57.3094,255.43,94,100,2.68,Vuktyl,1707164274
258,tonj,7.2737,28.6822,302.11,20,94,1.9,Tonj,1707164274
259,ilebo,-4.3167,20.5833,295.13,95,74,0.47,Ilebo,1707164274
260,touros,-5.1989,-35.4608,302.02,71,32,6.25,Touros,1707164275
261,yaval,21.1667,75.7,296.55,50,0,2.0,Yāval,1707164275
262,antsohihy,-14.8796,47.9875,297.68,95,96,1.19,Antsohihy,1707164275
263,arkhipo-osipovka,44.37,38.52,280.73,91,100,13.47,Arkhipo-Osipovka,1707164276
264,maumere,-8.6199,122.2111,299.61,84,96,2.7,Maumere,1707164276
265,okhotsk,59.3833,143.3,249.73,81,21,5.96,Okhotsk,1707164276
266,mersa matruh,31.3525,27.2453,288.34,76,0,5.02,Marsá Maţrūḩ,1707164276
267,nouadhibou,20.931,-17.0347,298.14,27,0,3.6,Nouadhibou,1707164277
268,lihue,21.9789,-159.3672,298.73,69,75,9.26,Lihue,1707164277
269,nakamura,32.9833,132.9333,277.02,92,8,2.68,Nakamura,1707164277
270,idrinskoye,54.3708,92.1358,262.57,93,98,1.48,Idrinskoye,1707164277
271,ozernyy,55.5802,32.4127,265.71,95,73,2.89,Ozërnyy,1707164277
272,alaghsas,17.0187,8.0168,291.37,16,98,9.88,Alaghsas,1707164277
273,vizianagaram,18.1167,83.4167,295.88,90,0,1.42,Vizianagaram,1707164278
274,bodo,67.28,14.405,269.69,80,0,6.69,Bodø,1707164188
275,chonchi,-42.6128,-73.8092,295.71,41,18,2.61,Chonchi,1707164278
276,carboneras,37.0015,-1.9213,286.66,60,100,2.52,Carboneras,1707164278
277,lazaro cardenas,17.9583,-102.2,301.6,60,1,4.59,Lázaro Cárdenas,1707164145
278,mana,5.6592,-53.7767,301.51,75,100,4.98,Mana,1707164278
279,sechura,-5.5569,-80.8222,301.3,70,82,4.8,Sechura,1707164279
280,codrington,-38.2667,141.9667,285.59,72,2,3.12,Codrington,1707164279
281,govindgarh,27.5,76.9833,284.7,56,97,2.84,Govindgarh,1707164279
282,constantia,44.1833,28.65,285.76,74,55,6.17,Constanța,1707164128
283,ponta delgada,37.7333,-25.6667,291.59,94,75,5.66,Ponta Delgada,1707164279
284,palkonda,18.6,83.75,294.51,93,0,0.64,Pālkonda,1707164280
285,kunming,25.0389,102.7183,279.11,81,0,4.0,Kunming,1707164280
286,santiago de cao,-7.9589,-79.2392,299.22,73,75,3.6,Santiago de Cao,1707164280
287,yuzhno-kurilsk,44.0306,145.8556,267.25,60,50,8.12,Yuzhno-Kurilsk,1707164280
288,kourou,5.1552,-52.6478,303.18,75,85,4.61,Kourou,1707164280
289,ciudad lazaro cardenas,17.9583,-102.2,301.6,60,1,4.59,Lázaro Cárdenas,1707164116
290,atar,20.5169,-13.0499,295.62,8,0,4.06,Atar,1707164281
291,ghat,24.9647,10.1728,286.19,32,0,3.2,Ghat,1707164281
292,igarka,67.4667,86.5833,247.35,98,52,2.41,Igarka,1707164281
293,vilyuysk,63.7553,121.6247,234.82,100,87,1.34,Vilyuysk,1707164281
294,aswan,24.0934,32.907,287.1,36,1,5.09,Aswān,1707164282
295,eureka,40.8021,-124.1637,284.63,95,100,0.45,Eureka,1707164227
296,cordova,38.0,-4.8333,279.9,81,0,1.54,Cordoba,1707164282
297,harper,4.375,-7.7169,300.85,79,9,4.21,Harper,1707164283
298,tokoroa,-38.2333,175.8667,291.8,70,5,0.5,Tokoroa,1707164214
299,burkburnett,34.0979,-98.5706,288.09,58,0,4.63,Burkburnett,1707164283
300,gornyy,55.1153,83.9059,263.62,92,84,4.79,Gornyy,1707164283
301,lijiang,26.8688,100.2207,272.53,97,24,2.15,Lijiang,1707164284
302,taunggyi,20.7833,97.0333,283.29,53,0,1.44,Taunggyi,1707164284
303,evansville,37.9748,-87.5558,287.69,33,0,5.14,Evansville,1707164154
304,richards bay,-28.783,32.0377,296.3,89,92,2.28,Richards Bay,1707164284
305,hammerfest,70.6634,23.6821,264.4,79,0,2.57,Hammerfest,1707164284
306,ulaangom,49.9811,92.0667,243.42,90,27,1.42,Ulaangom,1707164285
307,ad dabbah,18.05,30.95,290.58,15,92,6.51,Ad Dabbah,1707164285
308,chernyshevsk,52.5243,117.0174,242.94,100,51,0.73,Chernyshevsk,1707164285
309,ceeldheer,3.8488,47.1806,299.87,72,99,7.91,Ceeldheer,1707164285
310,sao vicente,-23.9631,-46.3919,306.63,41,20,4.12,São Vicente,1707164175
311,bata,1.8639,9.7658,300.62,84,74,3.26,Bata,1707164286
312,karatas,36.582,35.3701,284.23,61,1,2.75,Karataş,1707164286
313,gilgit,35.9221,74.3087,267.64,70,17,1.54,Gilgit,1707164286
314,mount gambier,-37.8333,140.7667,283.27,83,7,1.66,Mount Gambier,1707164287
315,luderitz,-26.6481,15.1594,292.83,86,0,4.89,Lüderitz,1707164287
316,farasan,16.7022,42.1183,298.96,77,63,4.45,Farasān,1707164287
317,kununurra,-15.7667,128.7333,299.14,89,1,2.57,Kununurra,1707164287
318,yanam,16.7333,82.2167,294.7,92,0,0.17,Yanam,1707164287
319,hamilton,39.1834,-84.5333,286.36,42,0,5.14,Hamilton,1707164208
320,erdenet,49.0333,104.0833,252.03,100,55,1.55,Erdenet,1707164288
321,mugia,43.1041,-9.2179,284.21,79,100,1.47,Mugia,1707164288
322,jiamusi,46.8333,130.35,249.1,98,54,2.54,Jiamusi,1707164288
323,sao jose da coroa grande,-8.8978,-35.1478,301.39,71,65,4.04,São José da Coroa Grande,1707164288
324,ancud,-41.8697,-73.8203,290.69,77,74,6.0,Ancud,1707164289
325,rabo de peixe,37.8,-25.5833,290.92,99,75,5.66,Rabo de Peixe,1707164289
326,rybinsk,58.0446,38.8426,262.22,98,97,1.79,Rybinsk,1707164289
327,leh,34.1667,77.5833,253.01,91,79,1.69,Leh,1707164289
328,skeldon,5.8833,-57.1333,302.98,67,91,5.24,Skeldon,1707164289
329,madimba,-10.4,40.3333,300.29,82,85,4.13,Madimba,1707164290
330,watford city,47.8022,-103.2832,278.07,100,20,3.09,Watford City,1707163993
331,laguna,38.421,-121.4238,288.22,81,75,4.12,Laguna,1707164290
332,mount isa,-20.7333,139.5,298.02,100,100,0.0,Mount Isa,1707164290
333,dunedin,-45.8742,170.5036,290.1,67,100,0.89,Dunedin,1707164007
334,keren,15.7778,38.4581,290.97,75,24,2.53,Keren,1707164291
335,la passe,45.5549,-0.8967,280.28,84,100,1.33,La Passe,1707164291
336,al ghayzah,16.2079,52.176,296.72,62,2,2.48,Al Ghayzah,1707164292
337,putyvl',51.3374,33.8707,272.23,96,100,5.66,Putyvl',1707164292
338,mount pearl,47.5166,-52.7813,274.44,96,100,6.17,Mount Pearl,1707164292
339,papao,-17.75,-149.55,301.97,86,100,9.43,Papao,1707164292
340,bosobolo,4.1833,19.9,300.61,30,5,0.35,Bosobolo,1707164292
341,queenstown,-31.8976,26.8753,292.95,75,2,1.48,Queenstown,1707164198
342,pizarro,4.9533,-77.366,302.06,72,62,3.22,Pizarro,1707164293
343,suhbaatar,50.2314,106.2078,245.49,100,97,0.7,Sühbaatar,1707164293
344,marquette,46.5333,-87.6335,278.58,87,92,1.29,Marquette,1707164294
345,thunder bay,48.4001,-89.3168,276.14,81,75,3.6,Thunder Bay,1707164294
346,natal,-5.795,-35.2094,303.51,62,20,6.17,Natal,1707164015
347,ta`u,-14.2336,-169.5144,301.38,79,81,3.06,Ta`ū,1707164294
348,lastoursville,-0.8143,12.7287,297.96,82,98,0.9,Lastoursville,1707164294
349,north battleford,52.7834,-108.2847,267.82,86,100,3.09,North Battleford,1707164120
350,ankang,32.68,109.0172,274.62,73,100,1.52,Ankang,1707164295
351,amarante do maranhao,-5.5667,-46.7422,300.79,78,94,0.54,Amarante do Maranhão,1707164295
352,san miguel,13.4833,-88.1833,307.93,51,20,6.17,San Miguel,1707164295
353,victorica,-36.2151,-65.4359,311.32,23,77,4.7,Victorica,1707164296
354,lagunas,-5.2269,-75.6753,306.78,48,60,1.47,Lagunas,1707164296
355,acapulco de juarez,16.8634,-99.8901,302.05,61,0,2.57,Acapulco de Juárez,1707164296
356,teluk nibung,3.001,99.8164,298.31,90,100,2.95,Teluk Nibung,1707164296
357,laojunmiao,39.8333,97.7333,264.14,76,100,2.68,Laojunmiao,1707164297
358,jumla,29.2747,82.1838,271.47,78,4,2.54,Jumla,1707164106
359,high rock,26.6208,-78.2833,289.16,55,100,4.08,High Rock,1707164297
360,rabaul,-4.1967,152.1721,300.07,78,96,1.67,Rabaul,1707164298
361,broome,42.2506,-75.833,279.1,61,0,3.6,Broome,1707164298
362,anloga,5.7947,0.8973,300.54,74,22,4.53,Anloga,1707164298
363,esquel,-42.9,-71.3167,296.76,27,100,5.08,Esquel,1707164167
364,sitges,41.2351,1.8119,290.38,67,100,0.45,Sitges,1707164145
365,fort bragg,35.139,-79.006,288.26,36,0,4.12,Fort Bragg,1707164299
366,nikolayevsk-on-amure,53.1406,140.73,249.64,99,85,1.77,Nikolayevsk-on-Amur,1707164299
367,port lincoln,-34.7333,135.8667,287.7,67,0,4.61,Port Lincoln,1707164299
368,saudarkrokur,65.7461,-19.6394,264.89,83,100,4.95,Sauðarkrokur,1707164300
369,medvezh'yegorsk,62.9167,34.4667,257.08,97,100,2.5,Medvezh'yegorsk,1707164300
370,mbalmayo,3.5167,11.5,297.33,63,83,2.35,Mbalmayo,1707164300
371,hirara,24.8,125.2833,291.07,82,100,8.23,Hirara,1707164301
372,osimo,43.4828,13.4875,284.87,47,74,2.57,Osimo,1707164301
373,kadirli,37.3739,36.0961,282.45,76,8,1.72,Kadirli,1707164302
374,kalmunai,7.4167,81.8167,298.24,82,68,3.63,Kalmunai,1707164302
375,namsos,64.4662,11.4957,270.18,93,100,4.63,Namsos,1707164302
376,beloyarskiy,63.7119,66.6722,248.71,100,100,1.79,Beloyarskiy,1707164302
377,yelizovo,53.1873,158.3805,262.23,52,75,2.0,Yelizovo,1707164303
378,cabo san lucas,22.8909,-109.9124,303.76,53,20,4.63,Cabo San Lucas,1707164447
379,shilin,24.8188,103.3324,283.02,56,0,3.72,Shilin,1707164303
380,steinbach,50.1667,8.5667,281.28,80,75,7.72,Steinbach am Taunus,1707164303
381,homer,59.6425,-151.5483,274.28,87,100,4.92,Homer,1707164304
382,old town,50.087,14.4202,283.97,67,0,10.29,Old Town,1707164246
383,dizangue,3.7667,9.9833,301.79,79,45,0.76,Dizangué,1707164304
384,debark',13.1561,37.8981,284.69,50,7,1.96,Debark’,1707164304
385,puerto san jose,13.9256,-90.8244,303.86,55,1,6.79,Puerto San José,1707164304
386,mhamid,29.82,-5.72,286.9,28,99,2.92,Mhamid,1707164305
387,pierre,44.3683,-100.351,278.63,88,100,5.66,Pierre,1707164305
388,noumea,-22.2763,166.4572,300.93,99,100,6.35,Noumea,1707164305
389,alcacer do sal,38.3733,-8.5144,284.88,89,100,1.48,Alcácer do Sal,1707164305
390,kaintragarh,20.7167,84.5333,293.45,81,0,2.37,Kaintragarh,1707164306
391,kingston,17.997,-76.7936,301.68,87,75,5.14,Kingston,1707164306
392,estevan,49.1334,-102.9842,276.34,87,100,3.09,Estevan,1707164175
393,ndelele,4.0333,14.9333,297.9,27,67,0.69,Ndelele,1707164306
394,remire-montjoly,4.9167,-52.2667,303.17,74,75,6.69,Rémire-Montjoly,1707164307
395,shaowu,27.3409,117.4831,280.03,96,100,1.47,Shaowu,1707164307
396,hithadhoo,-0.6,73.0833,301.5,75,100,3.29,Hithadhoo,1707164307
397,tandil,-37.3217,-59.1332,307.59,25,100,3.11,Tandil,1707164307
398,crucecita,-28.95,-58.9833,312.13,25,7,5.26,Crucecita,1707164308
399,roma,43.2128,-75.4557,278.92,40,0,4.63,Rome,1707164308
400,karaton,-6.3424,106.1045,296.41,96,99,1.39,Karaton,1707164308
401,villa gesell,-37.2639,-56.973,298.18,63,100,9.02,Villa Gesell,1707164308
402,peterhead,57.5058,-1.7981,278.37,95,100,3.03,Peterhead,1707164309
403,saipan,15.1355,145.701,299.54,65,100,5.14,Saipan,1707164309
404,loa janan,-0.583,117.095,296.4,98,100,1.0,Loa Janan,1707164309
405,ulladulla,-35.35,150.4667,293.35,97,100,3.24,Ulladulla,1707164309
406,labytnangi,66.6572,66.4183,246.32,100,100,0.62,Labytnangi,1707164310
407,kutum,14.2,24.6667,289.27,17,60,6.67,Kutum,1707164310
408,tutoia,-2.7619,-42.2744,302.39,73,11,6.65,Tutóia,1707164310
409,quellon,-43.1167,-73.6167,291.79,63,41,4.29,Quellón,1707164241
410,tsiombe,-25.3,45.4833,296.04,92,100,5.18,Tsiombe,1707164311
411,howrah,22.5892,88.3103,295.15,88,40,2.57,Howrah,1707164311
412,coquimbo,-29.9533,-71.3436,295.0,73,20,6.17,Coquimbo,1707164149
413,bac lieu,9.285,105.7244,297.83,87,12,3.41,Bac Lieu,1707164311
414,pankovka,58.5,31.1999,269.32,90,100,2.46,Pankovka,1707164311
415,cape canaveral,28.4058,-80.6048,293.19,66,75,3.09,Cape Canaveral,1707164312
416,tarauaca,-8.1614,-70.7656,302.31,79,46,0.95,Tarauacá,1707164312
417,nar'yan-mar,67.6713,53.087,254.32,97,100,1.79,Naryan-Mar,1707164313
418,akonolinga,3.7667,12.25,296.72,32,53,0.11,Akonolinga,1707164313
419,acarau,-2.8856,-40.12,302.81,66,13,8.61,Acaraú,1707164313
420,nova sintra,14.8667,-24.7167,294.43,68,0,5.74,Nova Sintra,1707164313
421,el alto,-4.2714,-81.2147,302.96,81,100,2.56,El Alto,1707164314
422,graaff-reinet,-32.2522,24.5308,299.22,48,0,4.66,Graaff-Reinet,1707164314
423,talghar,43.3044,77.2328,262.18,92,75,2.0,Talghar,1707164314
424,marka,1.7159,44.7717,299.8,81,81,8.29,Merca,1707164314
425,castillos,-34.1667,-53.8333,297.8,55,29,5.95,Castillos,1707164314
426,banda aceh,5.5577,95.3222,298.63,86,100,3.21,Banda Aceh,1707164315
427,nema,57.5067,50.5011,254.73,100,99,1.14,Nema,1707164315
428,piton saint-leu,-21.2196,55.3151,295.19,68,0,2.57,Piton Saint-Leu,1707164315
429,sequeira,40.5536,-7.2259,282.09,86,100,0.98,Sequeira,1707164316
430,los andes,-32.8337,-70.5983,305.38,23,37,4.38,Los Andes,1707164317
431,puerto lempira,15.2667,-83.7667,302.23,70,20,5.14,Puerto Lempira,1707164317
432,jeddah,21.5169,39.2192,294.07,43,0,4.12,Jeddah,1707164293
433,dickinson,29.4608,-95.0513,292.13,65,40,6.17,Dickinson,1707164212
434,katsuren-haebaru,26.3369,127.8719,290.16,69,52,6.48,Katsuren-haebaru,1707164318
435,usinsk,65.9939,57.5281,244.3,100,67,0.45,Usinsk,1707164318
436,abilene,32.4487,-99.7331,288.25,60,0,6.17,Abilene,1707164319
437,bemidji,47.4736,-94.8803,273.02,100,100,2.57,Bemidji,1707164096
438,prades,42.5833,2.1667,279.99,44,100,1.05,Arrondissement de Prades,1707164319
439,holualoa,19.6228,-155.9522,297.47,69,0,4.63,Holualoa,1707164319
440,sault ste. marie,46.5168,-84.3333,280.46,66,0,4.63,Sault Ste. Marie,1707164320
441,slave lake,55.2834,-114.769,265.14,57,100,3.09,Slave Lake,1707164320
442,mazowe,-17.504,30.9739,297.36,63,97,1.53,Mazowe,1707164320
443,zhuanghe,39.7008,122.9911,265.07,82,14,2.44,Zhuanghe,1707164320
444,fada,9.5667,8.3,295.92,17,15,3.98,Fada,1707164321
445,amga,60.8953,131.9608,238.09,100,100,0.61,Amga,1707164321
446,santa ana,33.7456,-117.8678,287.62,93,100,3.09,Santa Ana,1707164287
447,nili,33.7218,66.1302,265.31,78,2,2.28,Nīlī,1707164321
448,san rafael,-34.6177,-68.3301,309.51,24,43,4.68,San Rafael,1707164321
449,caxito,-8.5785,13.6643,299.27,89,97,1.01,Caxito,1707164322
450,ataq,14.5377,46.8319,290.49,86,22,4.37,Ataq,1707164322
451,evans,33.5337,-82.1307,285.44,68,100,3.6,Evans,1707164322
452,la sierpe,2.8518,-77.6155,301.18,80,95,2.3,La Sierpe,1707164327
453,terra santa,-2.1042,-56.4869,307.79,40,96,2.54,Terra Santa,1707164327
454,mikuni,36.2171,136.1519,275.1,84,98,3.26,Mikuni,1707164327
455,qarqin,37.4185,66.0436,281.9,41,8,9.67,Qarqīn,1707164327
456,argo,37.6333,22.7333,285.69,62,0,2.46,Argos,1707164328
457,broken hill,-31.95,141.4333,287.57,54,0,9.79,Broken Hill,1707164328
458,reyes,-14.3167,-67.3833,303.13,79,75,1.54,Reyes,1707164328
459,magadan,59.5667,150.8,251.23,75,100,4.09,Magadan,1707164328
460,cruz bay,18.3313,-64.7937,300.59,89,40,4.63,Cruz Bay,1707164329
461,indramayu,-6.3264,108.32,299.21,86,100,3.5,Indramayu,1707164329
462,rikaze,29.25,88.8833,271.23,20,0,1.83,Xigazê,1707164329
463,ondjiva,-17.0667,15.7333,296.76,71,91,1.62,Ondjiva,1707164329
464,teruel,40.6667,-0.6667,280.56,48,100,0.2,Teruel,1707164330
465,nsunga,-1.1439,31.3947,291.12,87,8,1.24,Nsunga,1707164298
466,manokwari,-0.8667,134.0833,298.9,83,100,2.8,Manokwari,1707164330
467,mankachar,25.5333,89.8667,291.97,52,100,0.93,Mankāchar,1707164330
468,bonthe,7.5264,-12.505,300.14,79,0,4.5,Bonthe,1707164330
469,sandnessjoen,66.0217,12.6316,270.21,93,75,3.09,Sandnessjøen,1707164331
470,katabu,-4.9333,122.5167,297.93,92,100,1.25,Katabu,1707164331
471,kharsia,21.9667,83.1167,293.31,45,0,1.24,Kharsia,1707164331
472,tympaki,35.0729,24.7685,287.13,66,9,3.29,Tympaki,1707164331
473,kurumkan,54.3,110.3,253.78,88,83,1.79,Kurumkan,1707164332
474,gannan,47.9147,123.5031,253.89,97,100,1.06,Gannan,1707164332
475,tuy hoa,13.0833,109.3,294.72,94,45,1.57,Tuy Hoa,1707164332
476,dalandzadgad,43.5708,104.425,258.38,81,13,0.89,Dalandzadgad,1707164333
477,valparaiso,-33.0393,-71.6273,298.28,56,0,6.17,Valparaíso,1707164333
478,rongelap,11.1635,166.8941,299.57,82,86,9.03,Rongelap,1707164333
479,laramie,41.3114,-105.5911,281.36,36,20,4.86,Laramie,1707164333
480,nassau,40.7507,-73.5829,281.3,41,0,4.12,Nassau,1707164333
481,nagqu,31.5,92.0,266.15,21,94,9.56,Nagqu Prefecture,1707164334
482,fish town,5.1964,-7.8756,298.64,79,30,2.2,Fish Town,1707164334
483,hultsfred,57.4882,15.8436,271.76,81,100,2.01,Hultsfred,1707164334
484,alice springs,-23.7,133.8833,297.9,40,100,6.17,Alice Springs,1707164334
485,pedro betancourt,22.7272,-81.29,301.45,40,6,10.62,Pedro Betancourt,1707164334
486,st. john's,47.5649,-52.7093,274.9,96,100,6.71,St. John's,1707164304
487,vinh yen,21.31,105.5967,294.12,91,100,2.96,Vinh Yen,1707164335
488,oneida,43.2001,-75.4663,278.96,40,0,4.63,Oneida,1707164163
489,lugoj,45.6886,21.9031,278.03,87,0,2.56,Lugoj,1707164197
490,kiuruvesi,63.65,26.6167,262.08,94,99,2.58,Kiuruvesi,1707164335
491,vilyuchinsk,52.9306,158.4028,262.3,79,75,4.24,Vilyuchinsk,1707164335
492,paramonga,-10.6667,-77.8333,299.86,69,22,4.37,Paramonga,1707164336
493,punta cana,18.5818,-68.4043,302.02,74,40,7.2,Punta Cana,1707164101
494,saldanha,-33.0117,17.9442,294.18,94,50,2.21,Saldanha,1707164336
495,andergrove,-21.0833,149.1833,296.84,82,2,2.16,Andergrove,1707164336
496,elgin,42.0373,-88.2812,280.47,73,40,3.09,Elgin,1707164325
497,kristiansund,63.1115,7.732,271.51,86,75,3.6,Kristiansund,1707164336
498,giado,31.9582,12.0203,285.26,39,0,1.87,Giado,1707164336
499,i-n-salah,27.1935,2.4607,289.43,23,2,6.04,I-n-Salah,1707164337
500,kincardine,56.0667,-3.7167,283.7,90,100,9.48,Kincardine,1707164337
501,sweetwater,25.7634,-80.3731,292.59,83,100,4.63,Sweetwater,1707164104
502,crane,31.3974,-102.3501,287.0,42,2,2.81,Crane,1707164117
503,bulungu,-4.55,18.6,295.35,95,85,0.77,Bulungu,1707164337
504,verbilki,56.5333,37.6,264.91,97,100,1.94,Verbilki,1707164337
505,nemuro,43.3236,145.575,265.85,76,99,6.01,Nemuro,1707164338
506,coruripe,-10.1256,-36.1756,301.68,69,28,5.16,Coruripe,1707164137
507,sredneuralsk,56.9892,60.4666,267.85,92,19,2.71,Sredneuralsk,1707164338
508,zahedan,29.4963,60.8629,276.1,41,0,2.06,Zahedan,1707164338
509,uliastay,47.7417,96.8444,252.33,68,100,2.72,Uliastai,1707164338
510,horta,38.5333,-28.6333,290.38,92,75,6.71,Horta,1707164338
511,malango,-2.9627,119.9001,293.41,95,100,1.13,Malango,1707164338
512,paita,-5.0892,-81.1144,299.31,79,93,4.1,Paita,1707164339
513,kapuskasing,49.4169,-82.4331,270.2,100,100,2.06,Kapuskasing,1707164222
514,meadow lake,34.8014,-106.5436,287.02,28,95,2.23,Meadow Lake,1707164339
515,rio gallegos,-51.6226,-69.2181,294.18,19,20,14.4,Río Gallegos,1707164340
516,qa'en,33.7265,59.1844,276.77,36,0,2.93,Qā’en,1707164340
517,at taj,24.2049,23.2857,284.57,49,0,5.05,At Tāj,1707164341
518,vila franca do campo,37.7167,-25.4333,291.42,99,88,5.78,Vila Franca do Campo,1707164341
519,groznyy,43.3083,45.7003,275.37,86,0,6.0,Grozny,1707164341
520,govardhan,27.5,77.4667,284.55,77,90,3.08,Govardhan,1707164342
521,lauenburg,53.372,10.5565,282.09,96,100,8.44,Lauenburg,1707164342
522,pangai,-19.8,-174.35,301.21,78,40,5.14,Pangai,1707164342
523,ayr,55.4627,-4.6339,283.32,93,75,9.77,Ayr,1707164342
524,north bend,43.4065,-124.2243,282.74,93,100,0.0,North Bend,1707164343
525,santa cruz,-17.8,-63.1667,309.18,46,40,6.17,Santa Cruz de la Sierra,1707164104
526,priob'ye,62.5206,65.5964,255.39,97,100,3.1,Priob’ye,1707164343
527,morant bay,17.8815,-76.4093,301.94,78,29,6.58,Morant Bay,1707164343
528,mili,6.0815,171.735,300.58,71,87,8.44,Mili,1707164344
529,motueka,-41.1333,173.0167,293.86,48,43,0.86,Motueka,1707164344
530,genet,9.0667,38.5,287.66,74,100,1.15,Genet,1707164344
531,zvishavane,-20.3267,30.0665,297.26,54,0,0.93,Zvishavane,1707164344
532,koson,39.0375,65.585,278.33,40,100,3.13,Koson,1707164344
533,port moresby,-9.4431,147.1797,296.83,94,20,2.57,Port Moresby,1707164344
534,tchintabaraden,15.8969,5.7985,292.77,12,97,6.39,Tchin Tabaradèn,1707164345
535,nova vicosa,-17.8919,-39.3719,301.31,72,56,4.89,Nova Viçosa,1707164345
536,oodweyne,9.4092,45.064,292.17,63,25,2.73,Oodweyne,1707164345
537,jessore,23.1687,89.2132,291.23,68,0,2.29,Jessore,1707164241
538,happy valley-goose bay,53.3168,-60.3315,263.32,73,75,1.03,Happy Valley-Goose Bay,1707164346
539,nuku'alofa,-21.1333,-175.2,300.34,78,75,6.17,Nuku'alofa,1707164346
540,petropavlovsk-kamchatsky,53.0452,158.6483,261.48,77,75,4.02,Petropavlovsk-Kamchatskiy,1707164346
541,zavodoukovsk,56.5042,66.5515,273.63,98,100,5.66,Zavodoukovsk,1707164346
542,praia da vitoria,38.7333,-27.0667,291.9,94,40,8.21,Praia da Vitória,1707164346
543,flin flon,54.7682,-101.865,274.06,93,100,1.54,Flin Flon,1707164347
544,betio village,1.358,172.9211,302.17,78,100,6.73,Betio Village,1707164347
545,tadine,-21.55,167.8833,298.94,86,100,8.04,Tadine,1707164347
546,east london,-33.0153,27.9116,297.28,88,0,3.76,East London,1707164347
547,swan hill,-35.3378,143.5544,288.04,63,0,6.0,Swan Hill,1707164348
548,undurkhaan,47.3194,110.6556,248.27,96,12,1.44,Undurkhaan,1707164348
549,qarauyl,48.9451,79.255,263.52,93,73,2.81,Qaraūyl,1707164348
550,dali,25.7,100.1833,278.84,88,71,2.27,Dali,1707164348
551,sievi,63.9,24.5,263.08,95,99,2.56,Sievi,1707164348
552,kiknur,57.3034,47.2011,253.56,100,100,1.24,Kiknur,1707164349
553,egilsstadir,65.2653,-14.3948,264.1,67,0,5.14,Egilsstadir,1707164349
554,calbuco,-41.768,-73.1273,294.71,76,95,2.4,Calbuco,1707164349
555,topolobampo,25.6,-109.05,301.1,21,40,3.09,Topolobampo,1707164349
556,christchurch,-43.5333,172.6333,295.08,49,100,3.09,Christchurch,1707164163
557,puerto quijarro,-17.7833,-57.7667,304.29,52,98,1.69,Puerto Quijarro,1707164166
558,puerto aysen,-45.4,-72.7,293.91,42,5,3.31,Puerto Aisén,1707164350
559,mongo,12.1844,18.693,298.47,16,4,3.95,Mongo,1707164350
560,isla mujeres,21.2311,-86.731,299.18,49,0,12.24,Isla Mujeres,1707164351
561,haiku-pauwela,20.9219,-156.3051,296.62,64,20,8.23,Haiku-Pauwela,1707164351
562,zhaqsy,51.9083,67.3133,271.8,96,100,9.65,Zhaksy,1707164351
563,rocha,-34.4833,-54.3333,300.47,45,48,7.22,Rocha,1707164164
564,eaglehawk,-36.7333,144.25,284.81,69,0,4.09,Eaglehawk,1707164352
565,keflavik,64.0049,-22.5624,267.1,73,40,10.29,Keflavik,1707164352
566,glace bay,46.1969,-59.957,274.18,97,100,3.13,Glace Bay,1707164352
567,vila velha,-20.3297,-40.2925,302.12,82,20,6.69,Vila Velha,1707164352
568,yarmouth,41.7057,-70.2286,277.23,60,0,9.83,Yarmouth,1707164180
569,saint-joseph,-21.3667,55.6167,294.36,75,80,4.21,Saint-Joseph,1707164353
570,anton lizardo,19.05,-95.9833,299.27,62,46,9.92,Antón Lizardo,1707164353
571,smithers,54.7804,-127.1743,263.33,92,75,1.54,Smithers,1707164353
572,kayyerkan,69.3786,87.7439,252.06,92,100,2.05,Kayyerkan,1707164353
